[
{
"yt_id": "Fd5js55RjOU",
"youtube_id": "Fd5js55RjOU",
"title": "Nairobi, Capital of Kenya-Green City in The Sun-4K Drone Video| World in 4K",
"description": "Nairobi Capital of Kenya \u2014 Green City 4K Drone",
"tags": [
"cityscape",
"nairobi",
"kenya"
],
"category": "cityscape",
"source": "youtube",
"status": "published",
"youtube_channel": "World in 4K",
"lat": -1.4936,
"lon": 36.7768,
"shot_lat": -1.4936,
"shot_lon": 36.7768,
"thumb_url": "https://i.ytimg.com/vi/Fd5js55RjOU/maxresdefault.jpg",
"ai_quality_score": 7,
"duration_s": 0,
"price_usd": 0,
"resolution": "HD",
"published_at": "2026-04-03T12:47:18.236487Z"
},
{
"yt_id": "LuB05G98pCA",
"youtube_id": "LuB05G98pCA",
"title": "Dakar City - Senegal 4K By Drone 2025",
"description": "Dakar City Senegal 4K Drone 2025",
"tags": [
"cityscape",
"dakar",
"senegal"
],
"category": "cityscape",
"source": "youtube",
"status": "published",
"youtube_channel": "The World",
"lat": 14.6184,
"lon": -17.32835,
"shot_lat": 14.6184,
"shot_lon": -17.32835,
"thumb_url": "https://i.ytimg.com/vi/LuB05G98pCA/maxresdefault.jpg",
"ai_quality_score": 7,
"duration_s": 0,
"price_usd": 0,
"resolution": "HD",
"published_at": "2025-06-17T20:06:14.236487Z"
},
{
"yt_id": "UVjU-bB4dns",
"youtube_id": "UVjU-bB4dns",
"title": "Dakar City , Senegal 4K By Drone 2023",
"description": "Dakar City Senegal 4K Drone 2023",
"tags": [
"cityscape",
"dakar",
"senegal"
],
"category": "cityscape",
"source": "youtube",
"status": "published",
"youtube_channel": "The World",
"lat": 14.78445,
"lon": -17.69965,
"shot_lat": 14.78445,
"shot_lon": -17.69965,
"thumb_url": "https://i.ytimg.com/vi/UVjU-bB4dns/maxresdefault.jpg",
"ai_quality_score": 7,
"duration_s": 0,
"price_usd": 0,
"resolution": "HD",
"published_at": "2025-11-14T05:10:53.236487Z"
},
{
"yt_id": "q1VS0attcQk",
"youtube_id": "q1VS0attcQk",
"title": "Algeria from Above 4K UHD - A Cinematic Drone Journey",
"description": "Algeria from Above 4K UHD \u2014 Cinematic Drone",
"tags": [
"cityscape",
"algiers",
"algeria"
],
"category": "cityscape",
"source": "youtube",
"status": "published",
"youtube_channel": "Clairmont",
"lat": 36.8366,
"lon": 2.8344,
"shot_lat": 36.8366,
"shot_lon": 2.8344,
"thumb_url": "https://i.ytimg.com/vi/q1VS0attcQk/maxresdefault.jpg",
"ai_quality_score": 7,
"duration_s": 0,
"price_usd": 0,
"resolution": "HD",
"published_at": "2025-12-23T04:19:12.236487Z"
},
{
"yt_id": "Uxb-hxKIWpE",
"youtube_id": "Uxb-hxKIWpE",
"title": "MEGACITIES - Lagos, Nigeria, Africa - Drone Tour - City Drone Footage",
"description": "Megacities Lagos Nigeria Africa \u2014 Drone Tour",
"tags": [
"cityscape",
"lagos",
"nigeria"
],
"category": "cityscape",
"source": "youtube",
"status": "published",
"youtube_channel": "Matteo Martino",
"lat": 6.5575,
"lon": 3.36405,
"shot_lat": 6.5575,
"shot_lon": 3.36405,
"thumb_url": "https://i.ytimg.com/vi/Uxb-hxKIWpE/maxresdefault.jpg",
"ai_quality_score": 7,
"duration_s": 0,
"price_usd": 0,
"resolution": "HD",
"published_at": "2026-03-27T06:15:46.236487Z"
},
{
"yt_id": "xAcCkfJqHf4",
"youtube_id": "xAcCkfJqHf4",
"title": "MARRAKECH, Morocco | 4K Drone Footage -  Jemaa el-Fnaa Square | Koutoubia | Majorelle Gardens",
"description": "Marrakech Morocco 4K Drone \u2014 Jemaa el-Fnaa Koutoubia",
"tags": [
"cityscape",
"marrakech",
"morocco"
],
"category": "cityscape",
"source": "youtube",
"status": "published",
"youtube_channel": "Maroc Maker",
"lat": 31.5771,
"lon": -8.04245,
"shot_lat": 31.5771,
"shot_lon": -8.04245,
"thumb_url": "https://i.ytimg.com/vi/xAcCkfJqHf4/maxresdefault.jpg",
"ai_quality_score": 7,
"duration_s": 0,
"price_usd": 0,
"resolution": "HD",
"published_at": "2026-01-11T08:04:16.236487Z"
},
{
"yt_id": "KdPmqb_krSI",
"youtube_id": "KdPmqb_krSI",
"title": "\u30104K\u3011Drone Footage | Visiting West Africa - SENEGAL 2019 ..:: Cinematic Aerial Film",
"description": "Visiting West Africa \u2014 SENEGAL 2019 Cinematic 4K",
"tags": [
"cityscape",
"senegal",
"dakar"
],
"category": "cityscape",
"source": "youtube",
"status": "published",
"youtube_channel": "One Man Wolf Pack",
"lat": 14.9243,
"lon": -17.68015,
"shot_lat": 14.9243,
"shot_lon": -17.68015,
"thumb_url": "https://i.ytimg.com/vi/KdPmqb_krSI/maxresdefault.jpg",
"ai_quality_score": 7,
"duration_s": 0,
"price_usd": 0,
"resolution": "HD",
"published_at": "2025-05-10T22:24:16.236487Z"
},
{
"yt_id": "pMRE7ofQE3U",
"youtube_id": "pMRE7ofQE3U",
"title": "Munich, Germany \ud83c\udde9\ud83c\uddea - by drone [4K]",
"description": "Munich Germany \u2014 by drone 4K",
"tags": [
"cityscape",
"munich",
"germany"
],
"category": "cityscape",
"source": "youtube",
"status": "published",
"youtube_channel": "Drone Snap",
"lat": 48.2488,
"lon": 11.49185,
"shot_lat": 48.2488,
"shot_lon": 11.49185,
"thumb_url": "https://i.ytimg.com/vi/pMRE7ofQE3U/maxresdefault.jpg",
"ai_quality_score": 7,
"duration_s": 0,
"price_usd": 0,
"resolution": "HD",
"published_at": "2026-03-30T08:02:14.236487Z"
},
{
"yt_id": "MuflV6qAs3I",
"youtube_id": "MuflV6qAs3I",
"title": "Hamburg, Germany \ud83c\udde9\ud83c\uddea - by drone [4K]",
"description": "Hamburg Germany \u2014 by drone 4K",
"tags": [
"cityscape",
"hamburg",
"germany"
],
"category": "cityscape",
"source": "youtube",
"status": "published",
"youtube_channel": "Drone Snap",
"lat": 53.404,
"lon": 10.1697,
"shot_lat": 53.404,
"shot_lon": 10.1697,
"thumb_url": "https://i.ytimg.com/vi/MuflV6qAs3I/maxresdefault.jpg",
"ai_quality_score": 7,
"duration_s": 0,
"price_usd": 0,
"resolution": "HD",
"published_at": "2025-06-28T22:29:10.236487Z"
},
{
"yt_id": "IEo26jpkd0M",
"youtube_id": "IEo26jpkd0M",
"title": "Munich, Germany \ud83c\udde9\ud83c\uddea in 4K Ultra HD | Drone Video",
"description": "Munich Germany 4K Ultra HD \u2014 Drone Video",
"tags": [
"cityscape",
"munich",
"germany"
],
"category": "cityscape",
"source": "youtube",
"status": "published",
"youtube_channel": "Explore The World 4K",
"lat": 48.17035,
"lon": 11.8283,
"shot_lat": 48.17035,
"shot_lon": 11.8283,
"thumb_url": "https://i.ytimg.com/vi/IEo26jpkd0M/maxresdefault.jpg",
"ai_quality_score": 7,
"duration_s": 0,
"price_usd": 0,
"resolution": "HD",
"published_at": "2025-05-13T07:28:23.236487Z"
},
{
"yt_id": "cYL1FjYnqG0",
"youtube_id": "cYL1FjYnqG0",
"title": "Munich, Germany \ud83c\udde9\ud83c\uddea | 4K Drone Footage (With Subtitles)",
"description": "Munich Germany 4K Drone Footage",
"tags": [
"cityscape",
"munich",
"germany"
],
"category": "cityscape",
"source": "youtube",
"status": "published",
"youtube_channel": "MTI Aerials",
"lat": 48.28255,
"lon": 11.38855,
"shot_lat": 48.28255,
"shot_lon": 11.38855,
"thumb_url": "https://i.ytimg.com/vi/cYL1FjYnqG0/maxresdefault.jpg",
"ai_quality_score": 7,
"duration_s": 0,
"price_usd": 0,
"resolution": "HD",
"published_at": "2025-10-30T15:10:59.236487Z"
},
{
"yt_id": "l_haVwAMY58",
"youtube_id": "l_haVwAMY58",
"title": "Venice from the Sky | Stunning 4K Drone Footage of Italy\u2019s Floating City \ud83d\udef6\u2728",
"description": "Venice from the Sky \u2014 4K Drone Italy Floating City",
"tags": [
"cityscape",
"venice",
"italy"
],
"category": "cityscape",
"source": "youtube",
"status": "published",
"youtube_channel": "Antonis Verveniotis",
"lat": 45.53055,
"lon": 12.0781,
"shot_lat": 45.53055,
"shot_lon": 12.0781,
"thumb_url": "https://i.ytimg.com/vi/l_haVwAMY58/maxresdefault.jpg",
"ai_quality_score": 7,
"duration_s": 0,
"price_usd": 0,
"resolution": "HD",
"published_at": "2025-07-17T13:36:53.236487Z"
},
{
"yt_id": "2nsQV8HmIHM",
"youtube_id": "2nsQV8HmIHM",
"title": "M\u00dcNCHEN MUNICH from above in 4K - Aerial View Drohne Marienplatz Allianz-Arena Olympiapark BMW",
"description": "M\u00dcNCHEN Munich from above 4K \u2014 Marienplatz BMW",
"tags": [
"cityscape",
"munich",
"germany"
],
"category": "cityscape",
"source": "youtube",
"status": "published",
"youtube_channel": "Frank H. - New Entertainment Pictures",
"lat": 48.23865,
"lon": 11.5547,
"shot_lat": 48.23865,
"shot_lon": 11.5547,
"thumb_url": "https://i.ytimg.com/vi/2nsQV8HmIHM/maxresdefault.jpg",
"ai_quality_score": 7,
"duration_s": 0,
"price_usd": 0,
"resolution": "HD",
"published_at": "2026-04-01T19:32:17.236487Z"
},
{
"yt_id": "FOBlHGjbijg",
"youtube_id": "FOBlHGjbijg",
"title": "Stunning 4K Drone Footage of Hamburg City | Breathtaking Aerial Views of Germany\u2019s Iconic Landmarks",
"description": "Hamburg City 4K Drone \u2014 Germany Landmarks",
"tags": [
"cityscape",
"hamburg",
"germany"
],
"category": "cityscape",
"source": "youtube",
"status": "published",
"youtube_channel": "Innovations & Discoveries",
"lat": 53.6834,
"lon": 9.8054,
"shot_lat": 53.6834,
"shot_lon": 9.8054,
"thumb_url": "https://i.ytimg.com/vi/FOBlHGjbijg/maxresdefault.jpg",
"ai_quality_score": 7,
"duration_s": 0,
"price_usd": 0,
"resolution": "HD",
"published_at": "2025-10-19T04:42:42.236487Z"
},
{
"yt_id": "-M-GjLnEfsU",
"youtube_id": "-M-GjLnEfsU",
"title": "Aerial View of Munich, Germany by Drone in 4K UltraHD \ud83c\udde9\ud83c\uddea",
"description": "Munich Germany by Drone 4K UltraHD",
"tags": [
"cityscape",
"munich",
"germany"
],
"category": "cityscape",
"source": "youtube",
"status": "published",
"youtube_channel": "ExtraLens Aerial",
"lat": 48.08465,
"lon": 11.7423,
"shot_lat": 48.08465,
"shot_lon": 11.7423,
"thumb_url": "https://i.ytimg.com/vi/-M-GjLnEfsU/maxresdefault.jpg",
"ai_quality_score": 7,
"duration_s": 0,
"price_usd": 0,
"resolution": "HD",
"published_at": "2026-01-11T15:03:37.236487Z"
},
{
"yt_id": "AyWDjZjBwC8",
"youtube_id": "AyWDjZjBwC8",
"title": "Hong Kong \ud83c\udded\ud83c\uddf0 in 4K ULTRA HD 60FPS at night by Drone",
"description": "Hong Kong 4K Ultra HD 60FPS at Night \u2014 Drone",
"tags": [
"night-flight",
"hong-kong",
"night"
],
"category": "night-flight",
"source": "youtube",
"status": "published",
"youtube_channel": "Exploropia",
"lat": 22.18525,
"lon": 114.28165,
"shot_lat": 22.18525,
"shot_lon": 114.28165,
"thumb_url": "https://i.ytimg.com/vi/AyWDjZjBwC8/maxresdefault.jpg",
"ai_quality_score": 7,
"duration_s": 0,
"price_usd": 0,
"resolution": "HD",
"published_at": "2026-02-13T05:52:41.207816Z"
},
{
"yt_id": "NT0ZhjrkKJY",
"youtube_id": "NT0ZhjrkKJY",
"title": "\u30104K\u30119 Capitals of ASIA from Above | Cinematic Wolf Aerial\u2122 Drone Film",
"description": "9 Capitals of ASIA from Above \u2014 Cinematic 4K",
"tags": [
"cityscape",
"asia",
"capitals"
],
"category": "cityscape",
"source": "youtube",
"status": "published",
"youtube_channel": "One Man Wolf Pack",
"lat": 34.77785,
"lon": 110.19485,
"shot_lat": 34.77785,
"shot_lon": 110.19485,
"thumb_url": "https://i.ytimg.com/vi/NT0ZhjrkKJY/maxresdefault.jpg",
"ai_quality_score": 7,
"duration_s": 0,
"price_usd": 0,
"resolution": "HD",
"published_at": "2025-10-18T14:48:43.207816Z"
},
{
"yt_id": "ZCt9hOvCMsM",
"youtube_id": "ZCt9hOvCMsM",
"title": "Cities of Asia at Night in 4K ULTRA HD HDR 60 FPS Dolby Vision\u2122 Drone Video",
"description": "Cities of Asia at Night 4K HDR 60 FPS Dolby Vision",
"tags": [
"night-flight",
"asia",
"night"
],
"category": "night-flight",
"source": "youtube",
"status": "published",
"youtube_channel": "Exploropia",
"lat": 35.0208,
"lon": 124.8895,
"shot_lat": 35.0208,
"shot_lon": 124.8895,
"thumb_url": "https://i.ytimg.com/vi/ZCt9hOvCMsM/maxresdefault.jpg",
"ai_quality_score": 7,
"duration_s": 0,
"price_usd": 0,
"resolution": "HD",
"published_at": "2025-11-27T17:21:04.207816Z"
},
{
"yt_id": "gZ8BlSE6R-A",
"youtube_id": "gZ8BlSE6R-A",
"title": "Hong Kong Aerial View 3D  Breathtaking 4K Drone Tour of Asia\u2019s World City",
"description": "Hong Kong Aerial 3D 4K Drone \u2014 Asia World City",
"tags": [
"cityscape",
"hong-kong"
],
"category": "cityscape",
"source": "youtube",
"status": "published",
"youtube_channel": "WorldFlyover 4K",
"lat": 22.54725,
"lon": 114.1921,
"shot_lat": 22.54725,
"shot_lon": 114.1921,
"thumb_url": "https://i.ytimg.com/vi/gZ8BlSE6R-A/maxresdefault.jpg",
"ai_quality_score": 7,
"duration_s": 0,
"price_usd": 0,
"resolution": "HD",
"published_at": "2025-10-10T20:38:41.207816Z"
},
{
"yt_id": "Z8dzbyVZgkI",
"youtube_id": "Z8dzbyVZgkI",
"title": "Taipei, Taiwan \ud83c\uddf9\ud83c\uddfc 4K UHD | Drone Footage",
"description": "Taipei Taiwan 4K UHD Drone",
"tags": [
"cityscape",
"taipei",
"taiwan"
],
"category": "cityscape",
"source": "youtube",
"status": "published",
"youtube_channel": "Ace Travel",
"lat": 25.109,
"lon": 121.38305,
"shot_lat": 25.109,
"shot_lon": 121.38305,
"thumb_url": "https://i.ytimg.com/vi/Z8dzbyVZgkI/maxresdefault.jpg",
"ai_quality_score": 7,
"duration_s": 0,
"price_usd": 0,
"resolution": "HD",
"published_at": "2025-10-30T08:42:40.207816Z"
},
{
"yt_id": "0IkjYPW7oVg",
"youtube_id": "0IkjYPW7oVg",
"title": "Hong Kong in 4K UHD Drone",
"description": "Hong Kong 4K UHD Drone",
"tags": [
"cityscape",
"hong-kong"
],
"category": "cityscape",
"source": "youtube",
"status": "published",
"youtube_channel": "Go Places Pro",
"lat": 22.27855,
"lon": 114.37845,
"shot_lat": 22.27855,
"shot_lon": 114.37845,
"thumb_url": "https://i.ytimg.com/vi/0IkjYPW7oVg/maxresdefault.jpg",
"ai_quality_score": 7,
"duration_s": 0,
"price_usd": 0,
"resolution": "HD",
"published_at": "2025-05-03T08:01:35.207816Z"
},
{
"yt_id": "rkzjrMGEqj0",
"youtube_id": "rkzjrMGEqj0",
"title": "\u30104K\u3011\ud83d\udd25 JAPAN from Above 2021 \ud83d\udd25 Cinematic Wolf Aerial\u2122 Drone Film",
"description": "Japan from Above 2021 Cinematic Wolf Aerial 4K",
"tags": [
"cityscape",
"japan",
"tokyo"
],
"category": "cityscape",
"source": "youtube",
"status": "published",
"youtube_channel": "One Man Wolf Pack",
"lat": 35.5161,
"lon": 139.72335,
"shot_lat": 35.5161,
"shot_lon": 139.72335,
"thumb_url": "https://i.ytimg.com/vi/rkzjrMGEqj0/maxresdefault.jpg",
"ai_quality_score": 7,
"duration_s": 0,
"price_usd": 0,
"resolution": "HD",
"published_at": "2025-05-05T05:08:02.207816Z"
},
{
"yt_id": "NkG5Eypwl_E",
"youtube_id": "NkG5Eypwl_E",
"title": "Hong Kong 4K drone view \u2022 Amazing Aerial View Of Hong Kong | Relaxation film with calming music",
"description": "Hong Kong 4K Drone \u2014 Amazing Aerial Relaxation",
"tags": [
"cityscape",
"hong-kong"
],
"category": "cityscape",
"source": "youtube",
"status": "published",
"youtube_channel": "Relaxing Nature Music",
"lat": 22.1033,
"lon": 114.41155,
"shot_lat": 22.1033,
"shot_lon": 114.41155,
"thumb_url": "https://i.ytimg.com/vi/NkG5Eypwl_E/maxresdefault.jpg",
"ai_quality_score": 7,
"duration_s": 0,
"price_usd": 0,
"resolution": "HD",
"published_at": "2025-06-17T11:53:20.207816Z"
},
{
"yt_id": "94iJcOiK38k",
"youtube_id": "94iJcOiK38k",
"title": "Beautiful Panama City by drone. 4K Aerial Panoramic Cityscape View",
"description": "Beautiful Panama City by drone 4K Aerial",
"tags": [
"cityscape",
"panama-city",
"panama"
],
"category": "cityscape",
"source": "youtube",
"status": "published",
"youtube_channel": "LATAM Travel & Photography by Marco",
"lat": 8.9251,
"lon": -79.54705,
"shot_lat": 8.9251,
"shot_lon": -79.54705,
"thumb_url": "https://i.ytimg.com/vi/94iJcOiK38k/maxresdefault.jpg",
"ai_quality_score": 7,
"duration_s": 0,
"price_usd": 0,
"resolution": "HD",
"published_at": "2025-09-26T05:53:46.207816Z"
},
{
"yt_id": "PAG4OAQD6Fk",
"youtube_id": "PAG4OAQD6Fk",
"title": "Panama City, Panama \ud83c\uddf5\ud83c\udde6 in 4K ULTRA HD 60FPS | Drone Video",
"description": "Panama City Panama 4K Ultra HD 60FPS Drone",
"tags": [
"cityscape",
"panama-city",
"panama"
],
"category": "cityscape",
"source": "youtube",
"status": "published",
"youtube_channel": "Ace Travel",
"lat": 8.88745,
"lon": -79.6405,
"shot_lat": 8.88745,
"shot_lon": -79.6405,
"thumb_url": "https://i.ytimg.com/vi/PAG4OAQD6Fk/maxresdefault.jpg",
"ai_quality_score": 7,
"duration_s": 0,
"price_usd": 0,
"resolution": "HD",
"published_at": "2025-08-04T23:32:59.207816Z"
},
{
"yt_id": "zXsWPLn0aDc",
"youtube_id": "zXsWPLn0aDc",
"title": "PANAMA CITY by Drone - [4K] Aerial Footage",
"description": "Panama City by Drone 4K Aerial Footage",
"tags": [
"cityscape",
"panama-city",
"panama"
],
"category": "cityscape",
"source": "youtube",
"status": "published",
"youtube_channel": "San Blas Dreams",
"lat": 8.81035,
"lon": -79.6327,
"shot_lat": 8.81035,
"shot_lon": -79.6327,
"thumb_url": "https://i.ytimg.com/vi/zXsWPLn0aDc/maxresdefault.jpg",
"ai_quality_score": 7,
"duration_s": 0,
"price_usd": 0,
"resolution": "HD",
"published_at": "2025-07-08T00:25:21.207816Z"
},
{
"yt_id": "hGg92N5-oM8",
"youtube_id": "hGg92N5-oM8",
"title": "Havana, Cuba \ud83c\udde8\ud83c\uddfa | 4K Drone Footage",
"description": "Havana Cuba \u2014 4K Drone Footage",
"tags": [
"cityscape",
"havana",
"cuba"
],
"category": "cityscape",
"source": "youtube",
"status": "published",
"youtube_channel": "MTI Aerials",
"lat": 23.1048,
"lon": -82.15765,
"shot_lat": 23.1048,
"shot_lon": -82.15765,
"thumb_url": "https://i.ytimg.com/vi/hGg92N5-oM8/maxresdefault.jpg",
"ai_quality_score": 7,
"duration_s": 0,
"price_usd": 0,
"resolution": "HD",
"published_at": "2026-01-24T08:57:36.207816Z"
},
{
"yt_id": "GdI7SHXTbvI",
"youtube_id": "GdI7SHXTbvI",
"title": "PANAMA CITY \ud83c\uddf5\ud83c\udde6 Drone Aerial 4K | Ciudad de Panam\u00e1 Dron",
"description": "Panama City 2024 Drone Aerial 4K",
"tags": [
"cityscape",
"panama-city",
"panama"
],
"category": "cityscape",
"source": "youtube",
"status": "published",
"youtube_channel": "Polychronis Film",
"lat": 8.86105,
"lon": -79.502,
"shot_lat": 8.86105,
"shot_lon": -79.502,
"thumb_url": "https://i.ytimg.com/vi/GdI7SHXTbvI/maxresdefault.jpg",
"ai_quality_score": 7,
"duration_s": 0,
"price_usd": 0,
"resolution": "HD",
"published_at": "2025-06-03T17:15:07.207816Z"
},
{
"yt_id": "1ib8pHSPdig",
"youtube_id": "1ib8pHSPdig",
"title": "Panama City, Panama \ud83c\uddf5\ud83c\udde6 in 4K ULTRA HD 60FPS Video by Drone",
"description": "Panama City Panama 4K Ultra HD 60FPS by Drone",
"tags": [
"cityscape",
"panama-city",
"panama"
],
"category": "cityscape",
"source": "youtube",
"status": "published",
"youtube_channel": "Exploropia",
"lat": 9.11355,
"lon": -79.3516,
"shot_lat": 9.11355,
"shot_lon": -79.3516,
"thumb_url": "https://i.ytimg.com/vi/1ib8pHSPdig/maxresdefault.jpg",
"ai_quality_score": 7,
"duration_s": 0,
"price_usd": 0,
"resolution": "HD",
"published_at": "2025-11-21T06:57:37.207816Z"
},
{
"yt_id": "jE910XajR-I",
"youtube_id": "jE910XajR-I",
"title": "Beautiful City Havana, Cuba \ud83c\udde8\ud83c\uddfa in 8K HDR 60FPS ULTRA HD Cinematic Drone Video",
"description": "Beautiful City Havana Cuba 8K HDR UHD Drone",
"tags": [
"cityscape",
"havana",
"cuba"
],
"category": "cityscape",
"source": "youtube",
"status": "published",
"youtube_channel": "Exploropia",
"lat": 23.3087,
"lon": -82.57415,
"shot_lat": 23.3087,
"shot_lon": -82.57415,
"thumb_url": "https://i.ytimg.com/vi/jE910XajR-I/maxresdefault.jpg",
"ai_quality_score": 7,
"duration_s": 0,
"price_usd": 0,
"resolution": "HD",
"published_at": "2025-11-02T00:02:58.207816Z"
},
{
"yt_id": "jiBcHo0kKyM",
"youtube_id": "jiBcHo0kKyM",
"title": "Panama From The Sky - An Aerial Journey (4K Drone Footage)",
"description": "Panama From The Sky \u2014 Aerial Journey 4K",
"tags": [
"landscape",
"panama",
"aerial"
],
"category": "landscape",
"source": "youtube",
"status": "published",
"youtube_channel": "Adventure Rich",
"lat": 8.7502,
"lon": -79.51635,
"shot_lat": 8.7502,
"shot_lon": -79.51635,
"thumb_url": "https://i.ytimg.com/vi/jiBcHo0kKyM/maxresdefault.jpg",
"ai_quality_score": 7,
"duration_s": 0,
"price_usd": 0,
"resolution": "HD",
"published_at": "2026-03-05T01:04:36.207816Z"
},
{
"yt_id": "5PDmd3s7lUw",
"youtube_id": "5PDmd3s7lUw",
"title": "Havana Tour by Drone [4K]",
"description": "Havana Tour by Drone 4K",
"tags": [
"cityscape",
"havana",
"cuba"
],
"category": "cityscape",
"source": "youtube",
"status": "published",
"youtube_channel": "Horizon Hover",
"lat": 22.87945,
"lon": -82.50385,
"shot_lat": 22.87945,
"shot_lon": -82.50385,
"thumb_url": "https://i.ytimg.com/vi/5PDmd3s7lUw/maxresdefault.jpg",
"ai_quality_score": 7,
"duration_s": 0,
"price_usd": 0,
"resolution": "HD",
"published_at": "2025-10-22T16:52:43.207816Z"
},
{
"yt_id": "KcnwwhK14XE",
"youtube_id": "KcnwwhK14XE",
"title": "Panama City, Panama \ud83c\uddf5\ud83c\udde6 - by drone [4K]",
"description": "Panama City Panama \u2014 by drone 4K",
"tags": [
"cityscape",
"panama-city",
"panama"
],
"category": "cityscape",
"source": "youtube",
"status": "published",
"youtube_channel": "Drone Snap",
"lat": 8.98905,
"lon": -79.51595,
"shot_lat": 8.98905,
"shot_lon": -79.51595,
"thumb_url": "https://i.ytimg.com/vi/KcnwwhK14XE/maxresdefault.jpg",
"ai_quality_score": 7,
"duration_s": 0,
"price_usd": 0,
"resolution": "HD",
"published_at": "2025-07-24T08:25:47.207816Z"
}
]