[
{
"yt_id": "DYcPztv8Atc",
"youtube_id": "DYcPztv8Atc",
"title": "AMAZON Rainforest in 4K \ud83c\udde7\ud83c\uddf7 World's Largest Tropical Forest \ud83c\udf34 Aerial Drone Amazonas",
"description": "AMAZON Rainforest 4K \u2014 World's Largest Tropical Forest",
"tags": [
"forest",
"amazon",
"brazil",
"rainforest"
],
"category": "forest",
"source": "youtube",
"status": "published",
"youtube_channel": "Polychronis Film",
"lat": -3.22725,
"lon": -61.90345,
"shot_lat": -3.22725,
"shot_lon": -61.90345,
"thumb_url": "https://i.ytimg.com/vi/DYcPztv8Atc/maxresdefault.jpg",
"ai_quality_score": 7,
"duration_s": 0,
"price_usd": 0,
"resolution": "HD",
"published_at": "2025-07-05T12:34:31.083247Z"
},
{
"yt_id": "-53mGJ4h5sQ",
"youtube_id": "-53mGJ4h5sQ",
"title": "Amazon in 4K - The World\u2019s Largest Tropical Rainforest | Aerial Drone | Scenic Relaxation Film",
"description": "Amazon 4K \u2014 World's Largest Tropical Rainforest",
"tags": [
"forest",
"amazon",
"brazil",
"rainforest"
],
"category": "forest",
"source": "youtube",
"status": "published",
"youtube_channel": "Scenic Scenes",
"lat": -2.6374,
"lon": -59.2662,
"shot_lat": -2.6374,
"shot_lon": -59.2662,
"thumb_url": "https://i.ytimg.com/vi/-53mGJ4h5sQ/maxresdefault.jpg",
"ai_quality_score": 7,
"duration_s": 0,
"price_usd": 0,
"resolution": "HD",
"published_at": "2025-04-29T05:49:34.083247Z"
},
{
"yt_id": "vWffN_ngKi8",
"youtube_id": "vWffN_ngKi8",
"title": "Amazon 4K drone view \u2022 Aerial view of Amazon Rainforest Jungle | Relaxation film with calming music",
"description": "Amazon 4K Drone View \u2014 Rainforest Jungle Relaxation",
"tags": [
"forest",
"amazon",
"jungle"
],
"category": "forest",
"source": "youtube",
"status": "published",
"youtube_channel": "Relaxing Nature Music",
"lat": -3.1942,
"lon": -61.6654,
"shot_lat": -3.1942,
"shot_lon": -61.6654,
"thumb_url": "https://i.ytimg.com/vi/vWffN_ngKi8/maxresdefault.jpg",
"ai_quality_score": 7,
"duration_s": 0,
"price_usd": 0,
"resolution": "HD",
"published_at": "2026-02-24T19:31:26.083247Z"
},
{
"yt_id": "GfAvK8Z2SEE",
"youtube_id": "GfAvK8Z2SEE",
"title": "Aerial Amazing Amazon Jungle 4K \u2013 Wildlife, Rainforest & Rivers | Relaxing Film",
"description": "Amazing Amazon Jungle 4K \u2014 Wildlife, Rainforest & Rivers",
"tags": [
"forest",
"amazon",
"jungle",
"wildlife"
],
"category": "forest",
"source": "youtube",
"status": "published",
"youtube_channel": "Relaxation Scenes 4K",
"lat": -4.166,
"lon": -62.7817,
"shot_lat": -4.166,
"shot_lon": -62.7817,
"thumb_url": "https://i.ytimg.com/vi/GfAvK8Z2SEE/maxresdefault.jpg",
"ai_quality_score": 7,
"duration_s": 0,
"price_usd": 0,
"resolution": "HD",
"published_at": "2025-11-29T09:21:38.083247Z"
},
{
"yt_id": "kW8kiuMdv_0",
"youtube_id": "kW8kiuMdv_0",
"title": "4K Amazon River Drone Footage \u2013 Relaxing Rainforest Aerial View | Peaceful Nature Ambience",
"description": "4K Amazon River Drone Footage \u2014 Rainforest Aerial",
"tags": [
"ocean",
"amazon-river",
"brazil"
],
"category": "ocean",
"source": "youtube",
"status": "published",
"youtube_channel": "Drone Snap",
"lat": -2.87125,
"lon": -59.8137,
"shot_lat": -2.87125,
"shot_lon": -59.8137,
"thumb_url": "https://i.ytimg.com/vi/kW8kiuMdv_0/maxresdefault.jpg",
"ai_quality_score": 7,
"duration_s": 0,
"price_usd": 0,
"resolution": "HD",
"published_at": "2025-07-02T02:02:13.083247Z"
},
{
"yt_id": "wcuCO2CLM6I",
"youtube_id": "wcuCO2CLM6I",
"title": "DJI-The life of Amazon Rain Forest",
"description": "DJI \u2014 The Life of Amazon Rain Forest",
"tags": [
"forest",
"amazon",
"dji"
],
"category": "forest",
"source": "youtube",
"status": "published",
"youtube_channel": "DJI",
"lat": -3.71715,
"lon": -59.76135,
"shot_lat": -3.71715,
"shot_lon": -59.76135,
"thumb_url": "https://i.ytimg.com/vi/wcuCO2CLM6I/maxresdefault.jpg",
"ai_quality_score": 7,
"duration_s": 0,
"price_usd": 0,
"resolution": "HD",
"published_at": "2025-06-18T00:33:59.083247Z"
},
{
"yt_id": "knx7RYNM2m4",
"youtube_id": "knx7RYNM2m4",
"title": "Sunset drone flight deep in Amazon Jungle, Bolivia",
"description": "Sunset Drone Flight Deep in Amazon Jungle Bolivia",
"tags": [
"forest",
"amazon",
"bolivia"
],
"category": "forest",
"source": "youtube",
"status": "published",
"youtube_channel": "Joshua Turner",
"lat": -12.8133,
"lon": -62.8508,
"shot_lat": -12.8133,
"shot_lon": -62.8508,
"thumb_url": "https://i.ytimg.com/vi/knx7RYNM2m4/maxresdefault.jpg",
"ai_quality_score": 7,
"duration_s": 0,
"price_usd": 0,
"resolution": "HD",
"published_at": "2026-01-14T20:58:00.083247Z"
},
{
"yt_id": "k6082aNwPEk",
"youtube_id": "k6082aNwPEk",
"title": "ANDES- A 4K Aerial Film of Peru",
"description": "ANDES 4K Aerial Film of Peru",
"tags": [
"mountain",
"andes",
"peru",
"cinematic"
],
"category": "mountain",
"source": "youtube",
"status": "published",
"youtube_channel": "Kevin Eassa",
"lat": -12.8361,
"lon": -71.9963,
"shot_lat": -12.8361,
"shot_lon": -71.9963,
"thumb_url": "https://i.ytimg.com/vi/k6082aNwPEk/maxresdefault.jpg",
"ai_quality_score": 7,
"duration_s": 0,
"price_usd": 0,
"resolution": "HD",
"published_at": "2025-09-05T14:17:58.083247Z"
},
{
"yt_id": "S47WU5B2bOs",
"youtube_id": "S47WU5B2bOs",
"title": "Machu Picchu Aerials // Drone 4K",
"description": "Machu Picchu Aerials \u2014 Drone 4K",
"tags": [
"ruins-heritage",
"machu-picchu",
"peru",
"inca"
],
"category": "ruins-heritage",
"source": "youtube",
"status": "published",
"youtube_channel": "Jared Dillingham",
"lat": -13.2993,
"lon": -72.857,
"shot_lat": -13.2993,
"shot_lon": -72.857,
"thumb_url": "https://i.ytimg.com/vi/S47WU5B2bOs/maxresdefault.jpg",
"ai_quality_score": 7,
"duration_s": 0,
"price_usd": 0,
"resolution": "HD",
"published_at": "2025-11-12T07:22:46.083247Z"
},
{
"yt_id": "oZ90M55mDac",
"youtube_id": "oZ90M55mDac",
"title": "Machu Picchu, Peru \ud83c\uddf5\ud83c\uddea - by drone [4K]",
"description": "Machu Picchu Peru \u2014 by drone 4K",
"tags": [
"ruins-heritage",
"machu-picchu",
"peru"
],
"category": "ruins-heritage",
"source": "youtube",
"status": "published",
"youtube_channel": "Drone Snap",
"lat": -13.5119,
"lon": -72.70285,
"shot_lat": -13.5119,
"shot_lon": -72.70285,
"thumb_url": "https://i.ytimg.com/vi/oZ90M55mDac/maxresdefault.jpg",
"ai_quality_score": 7,
"duration_s": 0,
"price_usd": 0,
"resolution": "HD",
"published_at": "2025-07-18T09:53:24.083247Z"
},
{
"yt_id": "_h0YTnPB2g0",
"youtube_id": "_h0YTnPB2g0",
"title": "Machu Picchu by drone - Peru 4K",
"description": "Machu Picchu by drone \u2014 Peru 4K",
"tags": [
"ruins-heritage",
"machu-picchu",
"peru"
],
"category": "ruins-heritage",
"source": "youtube",
"status": "published",
"youtube_channel": "HQ4you2",
"lat": -13.48895,
"lon": -73.028,
"shot_lat": -13.48895,
"shot_lon": -73.028,
"thumb_url": "https://i.ytimg.com/vi/_h0YTnPB2g0/maxresdefault.jpg",
"ai_quality_score": 7,
"duration_s": 0,
"price_usd": 0,
"resolution": "HD",
"published_at": "2025-07-05T06:23:51.083247Z"
},
{
"yt_id": "rxVEH4opmxI",
"youtube_id": "rxVEH4opmxI",
"title": "Machu Picchu, Peru in 4K ULTRA HD | Drone Footage",
"description": "Machu Picchu Peru 4K Ultra HD \u2014 Drone Footage",
"tags": [
"ruins-heritage",
"machu-picchu",
"peru"
],
"category": "ruins-heritage",
"source": "youtube",
"status": "published",
"youtube_channel": "Ace Travel",
"lat": -12.64015,
"lon": -72.8193,
"shot_lat": -12.64015,
"shot_lon": -72.8193,
"thumb_url": "https://i.ytimg.com/vi/rxVEH4opmxI/maxresdefault.jpg",
"ai_quality_score": 7,
"duration_s": 0,
"price_usd": 0,
"resolution": "HD",
"published_at": "2025-05-08T17:55:59.083247Z"
},
{
"yt_id": "MjN3VGooVrw",
"youtube_id": "MjN3VGooVrw",
"title": "Machu Picchu by Air Like Never Before: The Most Extensive Aerial & Ground Footage Ever Captured",
"description": "Machu Picchu by Air \u2014 Most Extensive Aerial Footage",
"tags": [
"ruins-heritage",
"machu-picchu",
"peru",
"extensive"
],
"category": "ruins-heritage",
"source": "youtube",
"status": "published",
"youtube_channel": "Charles Huang",
"lat": -13.09115,
"lon": -72.88145,
"shot_lat": -13.09115,
"shot_lon": -72.88145,
"thumb_url": "https://i.ytimg.com/vi/MjN3VGooVrw/maxresdefault.jpg",
"ai_quality_score": 7,
"duration_s": 0,
"price_usd": 0,
"resolution": "HD",
"published_at": "2025-11-30T07:53:19.083247Z"
},
{
"yt_id": "DA4mC91Z0KY",
"youtube_id": "DA4mC91Z0KY",
"title": "The Andes, Peru \ud83c\uddf5\ud83c\uddea - by drone [4K]",
"description": "The Andes Peru \u2014 by drone 4K",
"tags": [
"mountain",
"andes",
"peru"
],
"category": "mountain",
"source": "youtube",
"status": "published",
"youtube_channel": "Drone Snap",
"lat": -11.9133,
"lon": -73.4636,
"shot_lat": -11.9133,
"shot_lon": -73.4636,
"thumb_url": "https://i.ytimg.com/vi/DA4mC91Z0KY/maxresdefault.jpg",
"ai_quality_score": 7,
"duration_s": 0,
"price_usd": 0,
"resolution": "HD",
"published_at": "2026-04-19T19:24:40.083247Z"
},
{
"yt_id": "AwxfWHJ6wjM",
"youtube_id": "AwxfWHJ6wjM",
"title": "Drone footage of Zongo Glacier in the Andes Mountains",
"description": "Drone Footage of Zongo Glacier \u2014 Andes Bolivia",
"tags": [
"mountain",
"andes",
"bolivia",
"glacier"
],
"category": "mountain",
"source": "youtube",
"status": "published",
"youtube_channel": "UW-Madison Campus Connection",
"lat": -16.431,
"lon": -68.09655,
"shot_lat": -16.431,
"shot_lon": -68.09655,
"thumb_url": "https://i.ytimg.com/vi/AwxfWHJ6wjM/maxresdefault.jpg",
"ai_quality_score": 7,
"duration_s": 0,
"price_usd": 0,
"resolution": "HD",
"published_at": "2026-03-24T05:53:18.083247Z"
},
{
"yt_id": "9XnwAR0nLDM",
"youtube_id": "9XnwAR0nLDM",
"title": "Peru & Macchu Picchu - Breathtaking drone footage!",
"description": "Peru & Machu Picchu \u2014 Breathtaking Drone Footage",
"tags": [
"ruins-heritage",
"peru",
"machu-picchu"
],
"category": "ruins-heritage",
"source": "youtube",
"status": "published",
"youtube_channel": "viventura.com",
"lat": -13.51175,
"lon": -72.91335,
"shot_lat": -13.51175,
"shot_lon": -72.91335,
"thumb_url": "https://i.ytimg.com/vi/9XnwAR0nLDM/maxresdefault.jpg",
"ai_quality_score": 7,
"duration_s": 0,
"price_usd": 0,
"resolution": "HD",
"published_at": "2025-07-31T21:13:23.083247Z"
},
{
"yt_id": "tCZ9jz5pc9E",
"youtube_id": "tCZ9jz5pc9E",
"title": "CHILE - VALLE NEVADO. Sunset in the Andes Mountains. DJI Phantom 4 Drone Aerial Footage in 4k.",
"description": "Chile Valle Nevado \u2014 Sunset in the Andes",
"tags": [
"mountain",
"andes",
"chile",
"valle-nevado"
],
"category": "mountain",
"source": "youtube",
"status": "published",
"youtube_channel": "ThinLineMedia",
"lat": -33.5544,
"lon": -70.45475,
"shot_lat": -33.5544,
"shot_lon": -70.45475,
"thumb_url": "https://i.ytimg.com/vi/tCZ9jz5pc9E/maxresdefault.jpg",
"ai_quality_score": 7,
"duration_s": 0,
"price_usd": 0,
"resolution": "HD",
"published_at": "2026-01-06T17:36:22.083247Z"
},
{
"yt_id": "6GNUqGQen2I",
"youtube_id": "6GNUqGQen2I",
"title": "Avenue of Baobabs, Madagascar Drone Video",
"description": "Avenue of Baobabs Madagascar \u2014 Drone Video",
"tags": [
"forest",
"madagascar",
"baobab"
],
"category": "forest",
"source": "youtube",
"status": "published",
"youtube_channel": "The Blog of Dimi",
"lat": -20.6457,
"lon": 44.32205,
"shot_lat": -20.6457,
"shot_lon": 44.32205,
"thumb_url": "https://i.ytimg.com/vi/6GNUqGQen2I/maxresdefault.jpg",
"ai_quality_score": 7,
"duration_s": 0,
"price_usd": 0,
"resolution": "HD",
"published_at": "2025-10-13T22:24:52.083247Z"
},
{
"yt_id": "DVttUymzFSQ",
"youtube_id": "DVttUymzFSQ",
"title": "MAJESTIC BAOBAB FOREST from above in Madagascar, AERIAL DRONE VIDEO DJI Mavic Pro",
"description": "Majestic Baobab Forest Madagascar \u2014 DJI Mavic Pro",
"tags": [
"forest",
"madagascar",
"baobab"
],
"category": "forest",
"source": "youtube",
"status": "published",
"youtube_channel": "IVY / YAVORSKYY Gems, Travel & Knowledge",
"lat": -19.76175,
"lon": 44.31425,
"shot_lat": -19.76175,
"shot_lon": 44.31425,
"thumb_url": "https://i.ytimg.com/vi/DVttUymzFSQ/maxresdefault.jpg",
"ai_quality_score": 7,
"duration_s": 0,
"price_usd": 0,
"resolution": "HD",
"published_at": "2025-09-10T08:06:43.083247Z"
},
{
"yt_id": "ZW_dd2LoJWA",
"youtube_id": "ZW_dd2LoJWA",
"title": "Stunning 4K Aerial Views of Northwest Madagascar, Mozambique Channel - Calm Nature Scenes & Sounds",
"description": "4K Aerial Views Northwest Madagascar & Mozambique Channel",
"tags": [
"ocean",
"madagascar",
"mozambique-channel"
],
"category": "ocean",
"source": "youtube",
"status": "published",
"youtube_channel": "4K Relaxation Channel",
"lat": -16.4407,
"lon": 47.0859,
"shot_lat": -16.4407,
"shot_lon": 47.0859,
"thumb_url": "https://i.ytimg.com/vi/ZW_dd2LoJWA/maxresdefault.jpg",
"ai_quality_score": 7,
"duration_s": 0,
"price_usd": 0,
"resolution": "HD",
"published_at": "2026-01-16T13:56:36.083247Z"
},
{
"yt_id": "1Ly1wgFw0L0",
"youtube_id": "1Ly1wgFw0L0",
"title": "Bird's Eye View of Madagascar Island - 4K Ambient Drone Film with Calming Music",
"description": "Bird's Eye View of Madagascar Island \u2014 4K Ambient Drone",
"tags": [
"landscape",
"madagascar",
"ambient"
],
"category": "landscape",
"source": "youtube",
"status": "published",
"youtube_channel": "4K Relaxation Channel",
"lat": -18.41005,
"lon": 47.0866,
"shot_lat": -18.41005,
"shot_lon": 47.0866,
"thumb_url": "https://i.ytimg.com/vi/1Ly1wgFw0L0/maxresdefault.jpg",
"ai_quality_score": 7,
"duration_s": 0,
"price_usd": 0,
"resolution": "HD",
"published_at": "2026-01-19T08:54:39.083247Z"
},
{
"yt_id": "zPS0UNKLPkg",
"youtube_id": "zPS0UNKLPkg",
"title": "Madagascar 4K - Drone - Travel Video",
"description": "Madagascar 4K \u2014 Drone Travel Video",
"tags": [
"landscape",
"madagascar",
"travel"
],
"category": "landscape",
"source": "youtube",
"status": "published",
"youtube_channel": "Reiswereld",
"lat": -18.51935,
"lon": 47.3663,
"shot_lat": -18.51935,
"shot_lon": 47.3663,
"thumb_url": "https://i.ytimg.com/vi/zPS0UNKLPkg/maxresdefault.jpg",
"ai_quality_score": 7,
"duration_s": 0,
"price_usd": 0,
"resolution": "HD",
"published_at": "2026-04-02T08:43:07.083247Z"
},
{
"yt_id": "anDPYtpNYCg",
"youtube_id": "anDPYtpNYCg",
"title": "MADAGASCAR - DRONE FOOTAGE 4K - DJI Mavic",
"description": "Madagascar \u2014 Drone Footage 4K \u2014 DJI Mavic",
"tags": [
"landscape",
"madagascar"
],
"category": "landscape",
"source": "youtube",
"status": "published",
"youtube_channel": "NASAN",
"lat": -20.6855,
"lon": 47.70425,
"shot_lat": -20.6855,
"shot_lon": 47.70425,
"thumb_url": "https://i.ytimg.com/vi/anDPYtpNYCg/maxresdefault.jpg",
"ai_quality_score": 7,
"duration_s": 0,
"price_usd": 0,
"resolution": "HD",
"published_at": "2025-11-23T18:17:08.083247Z"
},
{
"yt_id": "bQVrkJ1lBFM",
"youtube_id": "bQVrkJ1lBFM",
"title": "Madagascar Island Aerial footage by drone.",
"description": "Madagascar Island Aerial Drone Footage",
"tags": [
"landscape",
"madagascar",
"island"
],
"category": "landscape",
"source": "youtube",
"status": "published",
"youtube_channel": "Nasri Ozel Photography",
"lat": -18.8302,
"lon": 46.91775,
"shot_lat": -18.8302,
"shot_lon": 46.91775,
"thumb_url": "https://i.ytimg.com/vi/bQVrkJ1lBFM/maxresdefault.jpg",
"ai_quality_score": 7,
"duration_s": 0,
"price_usd": 0,
"resolution": "HD",
"published_at": "2025-10-13T03:08:46.083247Z"
},
{
"yt_id": "NCm0-F97QoU",
"youtube_id": "NCm0-F97QoU",
"title": "Madagascar in 4K: A Breathtaking \ud83d\ude81 Drone Footage in Glorious 4K UHD 60fps \ud83d\ude81\ud83c\udf3f",
"description": "Madagascar 4K \u2014 60fps Drone Footage",
"tags": [
"landscape",
"madagascar"
],
"category": "landscape",
"source": "youtube",
"status": "published",
"youtube_channel": "Travel With Marti",
"lat": -18.98815,
"lon": 46.4986,
"shot_lat": -18.98815,
"shot_lon": 46.4986,
"thumb_url": "https://i.ytimg.com/vi/NCm0-F97QoU/maxresdefault.jpg",
"ai_quality_score": 7,
"duration_s": 0,
"price_usd": 0,
"resolution": "HD",
"published_at": "2025-06-06T16:12:13.083247Z"
},
{
"yt_id": "g_pL-dRahYs",
"youtube_id": "g_pL-dRahYs",
"title": "Madagascar: Land of The Lemurs | 4K",
"description": "Madagascar \u2014 Land of the Lemurs 4K",
"tags": [
"wildlife",
"madagascar",
"lemur"
],
"category": "wildlife",
"source": "youtube",
"status": "published",
"youtube_channel": "Real Wild",
"lat": -17.84195,
"lon": 46.83195,
"shot_lat": -17.84195,
"shot_lon": 46.83195,
"thumb_url": "https://i.ytimg.com/vi/g_pL-dRahYs/maxresdefault.jpg",
"ai_quality_score": 7,
"duration_s": 0,
"price_usd": 0,
"resolution": "HD",
"published_at": "2025-11-12T14:14:31.083247Z"
},
{
"yt_id": "mkc9FEqFvZ4",
"youtube_id": "mkc9FEqFvZ4",
"title": "\u30104K\u3011Drone Footage | The Beauty of Greenland in 12 Minutes 2019 | Cinematic Aerial Film Nuuk Glacier",
"description": "The Beauty of Greenland in 12 Minutes \u2014 Nuuk Glacier",
"tags": [
"landscape",
"greenland",
"nuuk",
"glacier"
],
"category": "landscape",
"source": "youtube",
"status": "published",
"youtube_channel": "One Man Wolf Pack",
"lat": 64.05375,
"lon": -51.44485,
"shot_lat": 64.05375,
"shot_lon": -51.44485,
"thumb_url": "https://i.ytimg.com/vi/mkc9FEqFvZ4/maxresdefault.jpg",
"ai_quality_score": 7,
"duration_s": 0,
"price_usd": 0,
"resolution": "HD",
"published_at": "2025-06-07T05:55:23.083247Z"
},
{
"yt_id": "X1EyEoxd4yk",
"youtube_id": "X1EyEoxd4yk",
"title": "Greenland \ud83c\uddec\ud83c\uddf1 - by drone [4K]",
"description": "Greenland \u2014 by drone 4K",
"tags": [
"landscape",
"greenland"
],
"category": "landscape",
"source": "youtube",
"status": "published",
"youtube_channel": "Drone Snap",
"lat": 69.4517,
"lon": -50.93885,
"shot_lat": 69.4517,
"shot_lon": -50.93885,
"thumb_url": "https://i.ytimg.com/vi/X1EyEoxd4yk/maxresdefault.jpg",
"ai_quality_score": 7,
"duration_s": 0,
"price_usd": 0,
"resolution": "HD",
"published_at": "2025-04-26T19:55:12.083247Z"
},
{
"yt_id": "4tyPjAkV5Tg",
"youtube_id": "4tyPjAkV5Tg",
"title": "\u30104K\u3011Drone Footage | How beautiful is Greenland ..:: Cinematic Aerial Film",
"description": "How Beautiful Is Greenland \u2014 Cinematic Aerial 4K",
"tags": [
"landscape",
"greenland",
"cinematic"
],
"category": "landscape",
"source": "youtube",
"status": "published",
"youtube_channel": "One Man Wolf Pack",
"lat": 68.2616,
"lon": -47.7594,
"shot_lat": 68.2616,
"shot_lon": -47.7594,
"thumb_url": "https://i.ytimg.com/vi/4tyPjAkV5Tg/maxresdefault.jpg",
"ai_quality_score": 7,
"duration_s": 0,
"price_usd": 0,
"resolution": "HD",
"published_at": "2025-12-25T09:45:14.083247Z"
},
{
"yt_id": "bmIqy-xsK7U",
"youtube_id": "bmIqy-xsK7U",
"title": "Aerial shots of Greenland reveal stunning landscapes of Ice",
"description": "Aerial Shots of Greenland \u2014 Stunning Ice Landscapes",
"tags": [
"landscape",
"greenland",
"ice"
],
"category": "landscape",
"source": "youtube",
"status": "published",
"youtube_channel": "AP Archive",
"lat": 72.49725,
"lon": -40.4518,
"shot_lat": 72.49725,
"shot_lon": -40.4518,
"thumb_url": "https://i.ytimg.com/vi/bmIqy-xsK7U/maxresdefault.jpg",
"ai_quality_score": 7,
"duration_s": 0,
"price_usd": 0,
"resolution": "HD",
"published_at": "2025-07-31T23:32:23.083247Z"
},
{
"yt_id": "KSp112_7NGo",
"youtube_id": "KSp112_7NGo",
"title": "Greenland's Hidden World Revealed in Stunning 4K HDR Drone Footage",
"description": "Greenland Like You've NEVER Seen It \u2014 DJI Air 3S 4K HDR",
"tags": [
"landscape",
"greenland",
"hdr",
"dji"
],
"category": "landscape",
"source": "youtube",
"status": "published",
"youtube_channel": "TraveLust in 4K HDR",
"lat": 69.1515,
"lon": -50.0687,
"shot_lat": 69.1515,
"shot_lon": -50.0687,
"thumb_url": "https://i.ytimg.com/vi/KSp112_7NGo/maxresdefault.jpg",
"ai_quality_score": 7,
"duration_s": 0,
"price_usd": 0,
"resolution": "HD",
"published_at": "2025-09-29T16:50:48.083247Z"
},
{
"yt_id": "QvW5tTV4sT4",
"youtube_id": "QvW5tTV4sT4",
"title": "Greenland Drone 4K With Ludovico Einaudi's Elegy Of The Arctic",
"description": "Greenland Drone 4K \u2014 Einaudi Elegy of the Arctic",
"tags": [
"landscape",
"greenland",
"arctic",
"cinematic"
],
"category": "landscape",
"source": "youtube",
"status": "published",
"youtube_channel": "Enrico Pescantini",
"lat": 69.8724,
"lon": -53.79465,
"shot_lat": 69.8724,
"shot_lon": -53.79465,
"thumb_url": "https://i.ytimg.com/vi/QvW5tTV4sT4/maxresdefault.jpg",
"ai_quality_score": 7,
"duration_s": 0,
"price_usd": 0,
"resolution": "HD",
"published_at": "2025-09-04T04:37:22.083247Z"
},
{
"yt_id": "FkXZfDQnsSY",
"youtube_id": "FkXZfDQnsSY",
"title": "Ilulissat Icefjord - GREENLAND | 4K Drone Footage",
"description": "Ilulissat Icefjord Greenland \u2014 4K Drone Footage",
"tags": [
"ocean",
"greenland",
"ilulissat",
"icefjord"
],
"category": "ocean",
"source": "youtube",
"status": "published",
"youtube_channel": "Rasmus Hagen-Pedersen",
"lat": 69.0206,
"lon": -50.36765,
"shot_lat": 69.0206,
"shot_lon": -50.36765,
"thumb_url": "https://i.ytimg.com/vi/FkXZfDQnsSY/maxresdefault.jpg",
"ai_quality_score": 7,
"duration_s": 0,
"price_usd": 0,
"resolution": "HD",
"published_at": "2025-08-09T02:03:06.083247Z"
},
{
"yt_id": "7w9OgX1FJ0c",
"youtube_id": "7w9OgX1FJ0c",
"title": "Watch a Drone Tour of Greenland's Glaciers",
"description": "Drone Tour of Greenland's Glaciers",
"tags": [
"landscape",
"greenland",
"glacier"
],
"category": "landscape",
"source": "youtube",
"status": "published",
"youtube_channel": "VICE News",
"lat": 69.03535,
"lon": -52.47745,
"shot_lat": 69.03535,
"shot_lon": -52.47745,
"thumb_url": "https://i.ytimg.com/vi/7w9OgX1FJ0c/maxresdefault.jpg",
"ai_quality_score": 7,
"duration_s": 0,
"price_usd": 0,
"resolution": "HD",
"published_at": "2026-03-29T15:48:09.083247Z"
},
{
"yt_id": "6_p4hqZee2Y",
"youtube_id": "6_p4hqZee2Y",
"title": "Sahara desert flood: Drone video shows palm trees, sand dunes inundated after rare rainfall",
"description": "Sahara Desert Flood \u2014 Palm Trees & Dunes Inundated",
"tags": [
"desert",
"sahara",
"morocco",
"flood"
],
"category": "desert",
"source": "youtube",
"status": "published",
"youtube_channel": "Global News",
"lat": 31.5062,
"lon": -4.2945,
"shot_lat": 31.5062,
"shot_lon": -4.2945,
"thumb_url": "https://i.ytimg.com/vi/6_p4hqZee2Y/maxresdefault.jpg",
"ai_quality_score": 7,
"duration_s": 0,
"price_usd": 0,
"resolution": "HD",
"published_at": "2026-04-10T19:15:46.083247Z"
},
{
"yt_id": "08Sy0BWgZlM",
"youtube_id": "08Sy0BWgZlM",
"title": "Drone footage shows Sahara floods after rare desert rainfall | REUTERS",
"description": "Drone Footage Sahara Floods \u2014 Reuters",
"tags": [
"desert",
"sahara",
"flood",
"reuters"
],
"category": "desert",
"source": "youtube",
"status": "published",
"youtube_channel": "Reuters",
"lat": 31.41395,
"lon": -4.48075,
"shot_lat": 31.41395,
"shot_lon": -4.48075,
"thumb_url": "https://i.ytimg.com/vi/08Sy0BWgZlM/maxresdefault.jpg",
"ai_quality_score": 7,
"duration_s": 0,
"price_usd": 0,
"resolution": "HD",
"published_at": "2026-01-25T10:39:25.083247Z"
},
{
"yt_id": "OY8Yy2G02xc",
"youtube_id": "OY8Yy2G02xc",
"title": "Drone footage shows rare flooding in the Sahara desert",
"description": "Rare Flooding in the Sahara Desert",
"tags": [
"desert",
"sahara",
"flood"
],
"category": "desert",
"source": "youtube",
"status": "published",
"youtube_channel": "Guardian News",
"lat": 30.89915,
"lon": -4.3935,
"shot_lat": 30.89915,
"shot_lon": -4.3935,
"thumb_url": "https://i.ytimg.com/vi/OY8Yy2G02xc/maxresdefault.jpg",
"ai_quality_score": 7,
"duration_s": 0,
"price_usd": 0,
"resolution": "HD",
"published_at": "2026-04-22T03:03:17.083247Z"
},
{
"yt_id": "QanXI2cl1oo",
"youtube_id": "QanXI2cl1oo",
"title": "Sahara Desert - 4x4 Drone footage",
"description": "Sahara Desert \u2014 4x4 Drone Footage",
"tags": [
"desert",
"sahara"
],
"category": "desert",
"source": "youtube",
"status": "published",
"youtube_channel": "steph",
"lat": 25.1143,
"lon": 0.1863,
"shot_lat": 25.1143,
"shot_lon": 0.1863,
"thumb_url": "https://i.ytimg.com/vi/QanXI2cl1oo/maxresdefault.jpg",
"ai_quality_score": 7,
"duration_s": 0,
"price_usd": 0,
"resolution": "HD",
"published_at": "2025-05-25T19:08:16.083247Z"
},
{
"yt_id": "TaIniVvizEQ",
"youtube_id": "TaIniVvizEQ",
"title": "The Sahara Desert in Morocco from a bird's-eye view! Dji Mavic Pro [HD]",
"description": "Sahara Desert Morocco Bird's-Eye View \u2014 DJI",
"tags": [
"desert",
"sahara",
"morocco",
"dji"
],
"category": "desert",
"source": "youtube",
"status": "published",
"youtube_channel": "Daniel Caspi (DaniCaspi)",
"lat": 30.36155,
"lon": -3.32335,
"shot_lat": 30.36155,
"shot_lon": -3.32335,
"thumb_url": "https://i.ytimg.com/vi/TaIniVvizEQ/maxresdefault.jpg",
"ai_quality_score": 7,
"duration_s": 0,
"price_usd": 0,
"resolution": "HD",
"published_at": "2025-07-30T10:43:01.083247Z"
},
{
"yt_id": "D5-fSOU1o3w",
"youtube_id": "D5-fSOU1o3w",
"title": "New drone footage reveals rare flooding in Sahara",
"description": "New Drone Footage \u2014 Rare Flooding in Sahara",
"tags": [
"desert",
"sahara",
"flood"
],
"category": "desert",
"source": "youtube",
"status": "published",
"youtube_channel": "CNN",
"lat": 30.04615,
"lon": -4.6677,
"shot_lat": 30.04615,
"shot_lon": -4.6677,
"thumb_url": "https://i.ytimg.com/vi/D5-fSOU1o3w/maxresdefault.jpg",
"ai_quality_score": 7,
"duration_s": 0,
"price_usd": 0,
"resolution": "HD",
"published_at": "2026-03-17T23:13:37.083247Z"
},
{
"yt_id": "5NMttYuLoYc",
"youtube_id": "5NMttYuLoYc",
"title": "Magical Mali - Drone footage from Timbuktu, Mopti and Sahara desert",
"description": "Magical Mali \u2014 Drone Footage Timbuktu and Mopti",
"tags": [
"desert",
"mali",
"timbuktu",
"sahara"
],
"category": "desert",
"source": "youtube",
"status": "published",
"youtube_channel": "African Drone",
"lat": 17.423,
"lon": -2.9384,
"shot_lat": 17.423,
"shot_lon": -2.9384,
"thumb_url": "https://i.ytimg.com/vi/5NMttYuLoYc/maxresdefault.jpg",
"ai_quality_score": 7,
"duration_s": 0,
"price_usd": 0,
"resolution": "HD",
"published_at": "2026-02-16T07:14:42.083247Z"
},
{
"yt_id": "vngLn7Y4u04",
"youtube_id": "vngLn7Y4u04",
"title": "Astonishing Aerial Shot Over Sahara Desert | Sahara Desert, Algeria. Aerial View",
"description": "Astonishing Aerial Shot Over Sahara Desert",
"tags": [
"desert",
"sahara",
"aerial"
],
"category": "desert",
"source": "youtube",
"status": "published",
"youtube_channel": "Vega Entertainment",
"lat": 25.44725,
"lon": 10.11775,
"shot_lat": 25.44725,
"shot_lon": 10.11775,
"thumb_url": "https://i.ytimg.com/vi/vngLn7Y4u04/maxresdefault.jpg",
"ai_quality_score": 7,
"duration_s": 0,
"price_usd": 0,
"resolution": "HD",
"published_at": "2025-07-31T21:22:23.083247Z"
},
{
"yt_id": "eOUXXzj19X0",
"youtube_id": "eOUXXzj19X0",
"title": "Travel Patagonia by Drone in 4k (Best of the Patagonia Expedition)",
"description": "Travel Patagonia by Drone 4K \u2014 Best of Expedition",
"tags": [
"mountain",
"patagonia",
"expedition"
],
"category": "mountain",
"source": "youtube",
"status": "published",
"youtube_channel": "BackPacker Steve",
"lat": -50.8352,
"lon": -73.9088,
"shot_lat": -50.8352,
"shot_lon": -73.9088,
"thumb_url": "https://i.ytimg.com/vi/eOUXXzj19X0/maxresdefault.jpg",
"ai_quality_score": 7,
"duration_s": 0,
"price_usd": 0,
"resolution": "HD",
"published_at": "2025-08-27T05:22:24.083247Z"
},
{
"yt_id": "mMqWTYXy_vs",
"youtube_id": "mMqWTYXy_vs",
"title": "Torres del Paine 4k | Epic | Drone | Timelapse | Best of | Glacier Grey | Animals | Ice | Cuernos",
"description": "Torres del Paine 4K \u2014 Glacier Grey, Ice, Animals",
"tags": [
"mountain",
"torres-del-paine",
"chile",
"patagonia"
],
"category": "mountain",
"source": "youtube",
"status": "published",
"youtube_channel": "Daniel R.",
"lat": -50.71845,
"lon": -73.2148,
"shot_lat": -50.71845,
"shot_lon": -73.2148,
"thumb_url": "https://i.ytimg.com/vi/mMqWTYXy_vs/maxresdefault.jpg",
"ai_quality_score": 7,
"duration_s": 0,
"price_usd": 0,
"resolution": "HD",
"published_at": "2025-06-20T09:16:21.083247Z"
},
{
"yt_id": "rx783h43B_Q",
"youtube_id": "rx783h43B_Q",
"title": "Southern Patagonia From Above | Torres del Paine | DJI Mavic Pro 4K",
"description": "Southern Patagonia From Above \u2014 DJI Mavic Pro 4K",
"tags": [
"mountain",
"patagonia",
"southern"
],
"category": "mountain",
"source": "youtube",
"status": "published",
"youtube_channel": "Drink Tea & Travel",
"lat": -50.66775,
"lon": -73.092,
"shot_lat": -50.66775,
"shot_lon": -73.092,
"thumb_url": "https://i.ytimg.com/vi/rx783h43B_Q/maxresdefault.jpg",
"ai_quality_score": 7,
"duration_s": 0,
"price_usd": 0,
"resolution": "HD",
"published_at": "2025-10-15T05:04:03.083247Z"
},
{
"yt_id": "wFe_pkz0LUM",
"youtube_id": "wFe_pkz0LUM",
"title": "Discover the Beauty of Patagonia, Torres del Paine from the Skies 4K",
"description": "Beauty of Patagonia Torres del Paine from the Skies",
"tags": [
"mountain",
"patagonia",
"torres"
],
"category": "mountain",
"source": "youtube",
"status": "published",
"youtube_channel": "From the Top View | Drone Videography",
"lat": -51.8109,
"lon": -73.1821,
"shot_lat": -51.8109,
"shot_lon": -73.1821,
"thumb_url": "https://i.ytimg.com/vi/wFe_pkz0LUM/maxresdefault.jpg",
"ai_quality_score": 7,
"duration_s": 0,
"price_usd": 0,
"resolution": "HD",
"published_at": "2025-10-25T15:14:24.083247Z"
},
{
"yt_id": "EUx33iw7qwA",
"youtube_id": "EUx33iw7qwA",
"title": "Patagonia Adventure || Los Glaciares, Torres del Paine & Tierra del Fuego || 4K",
"description": "Patagonia \u2014 Los Glaciares Torres Tierra del Fuego 4K",
"tags": [
"mountain",
"patagonia",
"glaciares",
"tierra-del-fuego"
],
"category": "mountain",
"source": "youtube",
"status": "published",
"youtube_channel": "Travels by Vedrana Sucic",
"lat": -49.3165,
"lon": -73.15495,
"shot_lat": -49.3165,
"shot_lon": -73.15495,
"thumb_url": "https://i.ytimg.com/vi/EUx33iw7qwA/maxresdefault.jpg",
"ai_quality_score": 7,
"duration_s": 0,
"price_usd": 0,
"resolution": "HD",
"published_at": "2025-10-30T04:36:08.083247Z"
},
{
"yt_id": "syU2Wp4dMGU",
"youtube_id": "syU2Wp4dMGU",
"title": "Patagonia 4k | Torres del Paine National Park | Patagonia 4k Video Ultra HD | Patagonia Chile 4k",
"description": "Patagonia 4K \u2014 Torres del Paine National Park Ultra HD",
"tags": [
"mountain",
"patagonia",
"torres",
"chile"
],
"category": "mountain",
"source": "youtube",
"status": "published",
"youtube_channel": "Audio Expanse",
"lat": -50.46705,
"lon": -73.37235,
"shot_lat": -50.46705,
"shot_lon": -73.37235,
"thumb_url": "https://i.ytimg.com/vi/syU2Wp4dMGU/maxresdefault.jpg",
"ai_quality_score": 7,
"duration_s": 0,
"price_usd": 0,
"resolution": "HD",
"published_at": "2025-10-11T19:08:25.083247Z"
},
{
"yt_id": "s86z9TGx7n4",
"youtube_id": "s86z9TGx7n4",
"title": "Torres del Paine 4k | Chile | Base | Rain mood | Relaxing | Waterfall | Hiking | Patagonia",
"description": "Torres del Paine 4K Chile \u2014 Base, Rain, Waterfalls",
"tags": [
"mountain",
"patagonia",
"torres",
"waterfall"
],
"category": "mountain",
"source": "youtube",
"status": "published",
"youtube_channel": "Daniel R.",
"lat": -51.6743,
"lon": -73.45295,
"shot_lat": -51.6743,
"shot_lon": -73.45295,
"thumb_url": "https://i.ytimg.com/vi/s86z9TGx7n4/maxresdefault.jpg",
"ai_quality_score": 7,
"duration_s": 0,
"price_usd": 0,
"resolution": "HD",
"published_at": "2025-09-07T12:00:20.083247Z"
},
{
"yt_id": "V4oIovp6mC8",
"youtube_id": "V4oIovp6mC8",
"title": "This is PATAGONIA in Chile and Why You Need To Go | Torres del Paine National Park in 4K",
"description": "This Is Patagonia in Chile \u2014 Torres del Paine 4K",
"tags": [
"mountain",
"patagonia",
"torres",
"chile"
],
"category": "mountain",
"source": "youtube",
"status": "published",
"youtube_channel": "Going Awesome Places",
"lat": -51.28565,
"lon": -72.4047,
"shot_lat": -51.28565,
"shot_lon": -72.4047,
"thumb_url": "https://i.ytimg.com/vi/V4oIovp6mC8/maxresdefault.jpg",
"ai_quality_score": 7,
"duration_s": 0,
"price_usd": 0,
"resolution": "HD",
"published_at": "2025-09-10T19:20:29.083247Z"
},
{
"yt_id": "DQx96G4yHd8",
"youtube_id": "DQx96G4yHd8",
"title": "STUNNING Drone Video of ICELAND VOLCANO Eruption | 4K DJI FPV",
"description": "Stunning Drone Video of Iceland Volcano Eruption 4K",
"tags": [
"mountain",
"iceland",
"volcano",
"eruption"
],
"category": "mountain",
"source": "youtube",
"status": "published",
"youtube_channel": "Joey Helms",
"lat": 64.2789,
"lon": -21.5521,
"shot_lat": 64.2789,
"shot_lon": -21.5521,
"thumb_url": "https://i.ytimg.com/vi/DQx96G4yHd8/maxresdefault.jpg",
"ai_quality_score": 7,
"duration_s": 0,
"price_usd": 0,
"resolution": "HD",
"published_at": "2025-06-18T22:38:50.083247Z"
},
{
"yt_id": "CMYogNF8EXs",
"youtube_id": "CMYogNF8EXs",
"title": "Iceland 4K Drone - Kirkjufell, Waterfalls & Glacier Lagoon Aerial Film",
"description": "Iceland 4K Drone \u2014 Kirkjufell, Waterfalls & Glacier Lagoon",
"tags": [
"landscape",
"iceland",
"kirkjufell",
"waterfall"
],
"category": "landscape",
"source": "youtube",
"status": "published",
"youtube_channel": "Dronography",
"lat": 64.57375,
"lon": -23.89315,
"shot_lat": 64.57375,
"shot_lon": -23.89315,
"thumb_url": "https://i.ytimg.com/vi/CMYogNF8EXs/maxresdefault.jpg",
"ai_quality_score": 7,
"duration_s": 0,
"price_usd": 0,
"resolution": "HD",
"published_at": "2026-01-16T03:55:11.083247Z"
},
{
"yt_id": "03j1mB2NnQs",
"youtube_id": "03j1mB2NnQs",
"title": "Iceland Explodes! | Unseen Lava & Volcano Drone Footage | 4K",
"description": "Iceland Explodes \u2014 Unseen Lava & Volcano Drone 4K",
"tags": [
"mountain",
"iceland",
"lava",
"volcano"
],
"category": "mountain",
"source": "youtube",
"status": "published",
"youtube_channel": "Joey Helms",
"lat": 63.8232,
"lon": -21.9346,
"shot_lat": 63.8232,
"shot_lon": -21.9346,
"thumb_url": "https://i.ytimg.com/vi/03j1mB2NnQs/maxresdefault.jpg",
"ai_quality_score": 7,
"duration_s": 0,
"price_usd": 0,
"resolution": "HD",
"published_at": "2025-11-06T05:56:10.083247Z"
},
{
"yt_id": "ubHRA2x8Hx8",
"youtube_id": "ubHRA2x8Hx8",
"title": "CRAZY DRONE FOOTAGE AT THE ICELAND VOLCANO ERUPTION (the drone almost melted..)",
"description": "Crazy Drone at Iceland Volcano \u2014 Drone Almost Melted",
"tags": [
"mountain",
"iceland",
"volcano",
"fpv"
],
"category": "mountain",
"source": "youtube",
"status": "published",
"youtube_channel": "THAT ICELANDIC GUY.",
"lat": 63.23025,
"lon": -22.70355,
"shot_lat": 63.23025,
"shot_lon": -22.70355,
"thumb_url": "https://i.ytimg.com/vi/ubHRA2x8Hx8/maxresdefault.jpg",
"ai_quality_score": 7,
"duration_s": 0,
"price_usd": 0,
"resolution": "HD",
"published_at": "2025-06-11T18:38:43.083247Z"
},
{
"yt_id": "A-lIYxXk5zA",
"youtube_id": "A-lIYxXk5zA",
"title": "Stunning drone footage captures Iceland volcanic eruption",
"description": "Stunning Drone \u2014 Iceland Volcanic Eruption",
"tags": [
"mountain",
"iceland",
"volcano"
],
"category": "mountain",
"source": "youtube",
"status": "published",
"youtube_channel": "ABC 7 Chicago",
"lat": 64.123,
"lon": -21.8878,
"shot_lat": 64.123,
"shot_lon": -21.8878,
"thumb_url": "https://i.ytimg.com/vi/A-lIYxXk5zA/maxresdefault.jpg",
"ai_quality_score": 7,
"duration_s": 0,
"price_usd": 0,
"resolution": "HD",
"published_at": "2025-08-01T08:00:38.083247Z"
},
{
"yt_id": "cKnKroCLTeI",
"youtube_id": "cKnKroCLTeI",
"title": "Amazing Waterfalls in Iceland // 4k Drone Footage // DJI Phantom 4",
"description": "Amazing Waterfalls in Iceland \u2014 4K Drone DJI Phantom 4",
"tags": [
"landscape",
"iceland",
"waterfall"
],
"category": "landscape",
"source": "youtube",
"status": "published",
"youtube_channel": "VeloVegan",
"lat": 64.15535,
"lon": -19.1521,
"shot_lat": 64.15535,
"shot_lon": -19.1521,
"thumb_url": "https://i.ytimg.com/vi/cKnKroCLTeI/maxresdefault.jpg",
"ai_quality_score": 7,
"duration_s": 0,
"price_usd": 0,
"resolution": "HD",
"published_at": "2025-09-10T19:01:29.083247Z"
},
{
"yt_id": "Q_k3GPAdXLk",
"youtube_id": "Q_k3GPAdXLk",
"title": "Iceland Volcano Eruption Up-close Drone Video | Stunning Cinematic View 4K HDR DJI FPV",
"description": "Iceland Volcano Eruption Up-Close Drone \u2014 4K HDR",
"tags": [
"mountain",
"iceland",
"volcano",
"hdr"
],
"category": "mountain",
"source": "youtube",
"status": "published",
"youtube_channel": "Exploropia",
"lat": 63.34725,
"lon": -22.20265,
"shot_lat": 63.34725,
"shot_lon": -22.20265,
"thumb_url": "https://i.ytimg.com/vi/Q_k3GPAdXLk/maxresdefault.jpg",
"ai_quality_score": 7,
"duration_s": 0,
"price_usd": 0,
"resolution": "HD",
"published_at": "2025-07-17T05:19:03.083247Z"
},
{
"yt_id": "wxeSmLXECNE",
"youtube_id": "wxeSmLXECNE",
"title": "Drone captures spectacular views of Iceland volcano before overheating | ABC News",
"description": "Drone Captures Iceland Volcano Before Overheating \u2014 ABC",
"tags": [
"mountain",
"iceland",
"volcano",
"abc"
],
"category": "mountain",
"source": "youtube",
"status": "published",
"youtube_channel": "ABC News",
"lat": 63.7122,
"lon": -21.86665,
"shot_lat": 63.7122,
"shot_lon": -21.86665,
"thumb_url": "https://i.ytimg.com/vi/wxeSmLXECNE/maxresdefault.jpg",
"ai_quality_score": 7,
"duration_s": 0,
"price_usd": 0,
"resolution": "HD",
"published_at": "2026-01-14T21:35:10.083247Z"
},
{
"yt_id": "BoEuefuPnc8",
"youtube_id": "BoEuefuPnc8",
"title": "Arabian Desert 4K Drone | Explore the Deserts of SAUDI ARABIA",
"description": "Arabian Desert 4K \u2014 Saudi Arabia Deserts",
"tags": [
"desert",
"saudi",
"arabian-desert"
],
"category": "desert",
"source": "youtube",
"status": "published",
"youtube_channel": "Mohd Drone",
"lat": 23.4108,
"lon": 45.47805,
"shot_lat": 23.4108,
"shot_lon": 45.47805,
"thumb_url": "https://i.ytimg.com/vi/BoEuefuPnc8/maxresdefault.jpg",
"ai_quality_score": 7,
"duration_s": 0,
"price_usd": 0,
"resolution": "HD",
"published_at": "2026-04-11T02:33:06.083247Z"
},
{
"yt_id": "lVhLmvXlQa4",
"youtube_id": "lVhLmvXlQa4",
"title": "Jordan country tour  | Dead Sea, Petra, Amman city | 4k video | Jordan travel from drone",
"description": "Jordan Country Tour 4K \u2014 Dead Sea, Petra, Amman",
"tags": [
"landscape",
"jordan",
"petra",
"amman"
],
"category": "landscape",
"source": "youtube",
"status": "published",
"youtube_channel": "Travel Guide",
"lat": 32.62115,
"lon": 35.18425,
"shot_lat": 32.62115,
"shot_lon": 35.18425,
"thumb_url": "https://i.ytimg.com/vi/lVhLmvXlQa4/maxresdefault.jpg",
"ai_quality_score": 7,
"duration_s": 0,
"price_usd": 0,
"resolution": "HD",
"published_at": "2025-08-11T09:32:33.083247Z"
},
{
"yt_id": "HfiWYKTgRxI",
"youtube_id": "HfiWYKTgRxI",
"title": "Drone footage reveals The Line megacity under construction in Saudi Arabia",
"description": "The Line Megacity Under Construction \u2014 Saudi Arabia",
"tags": [
"cityscape",
"saudi",
"the-line",
"megacity"
],
"category": "cityscape",
"source": "youtube",
"status": "published",
"youtube_channel": "Dezeen",
"lat": 28.01295,
"lon": 34.8818,
"shot_lat": 28.01295,
"shot_lon": 34.8818,
"thumb_url": "https://i.ytimg.com/vi/HfiWYKTgRxI/maxresdefault.jpg",
"ai_quality_score": 7,
"duration_s": 0,
"price_usd": 0,
"resolution": "HD",
"published_at": "2025-09-01T23:01:45.083247Z"
},
{
"yt_id": "JFA8oMBCNUA",
"youtube_id": "JFA8oMBCNUA",
"title": "Up close and personal - Petra by Drone in 4k",
"description": "Up Close and Personal \u2014 Petra by Drone 4K",
"tags": [
"ruins-heritage",
"jordan",
"petra"
],
"category": "ruins-heritage",
"source": "youtube",
"status": "published",
"youtube_channel": "KT Drones",
"lat": 29.75055,
"lon": 35.95215,
"shot_lat": 29.75055,
"shot_lon": 35.95215,
"thumb_url": "https://i.ytimg.com/vi/JFA8oMBCNUA/maxresdefault.jpg",
"ai_quality_score": 7,
"duration_s": 0,
"price_usd": 0,
"resolution": "HD",
"published_at": "2025-11-26T23:11:51.083247Z"
},
{
"yt_id": "G5KCKKia61o",
"youtube_id": "G5KCKKia61o",
"title": "Saudi Arabia from Above - An Aerial Drone Film \u0627\u0644\u0645\u0645\u0644\u0643\u0629 \u0627\u0644\u0639\u0631\u0628\u064a\u0629 \u0627\u0644\u0633\u0639\u0648\u062f\u064a\u0629 \u062c\u0648\u064a \u0637\u0627\u0626\u0631\u0629 \u0628\u062f\u0648\u0646 \u0637\u064a\u0627\u0631 \u0641\u064a\u0644\u0645",
"description": "Saudi Arabia from Above \u2014 Aerial Drone Film",
"tags": [
"landscape",
"saudi"
],
"category": "landscape",
"source": "youtube",
"status": "published",
"youtube_channel": "Stef Hoffer",
"lat": 23.53575,
"lon": 44.88885,
"shot_lat": 23.53575,
"shot_lon": 44.88885,
"thumb_url": "https://i.ytimg.com/vi/G5KCKKia61o/maxresdefault.jpg",
"ai_quality_score": 7,
"duration_s": 0,
"price_usd": 0,
"resolution": "HD",
"published_at": "2025-07-26T22:45:53.083247Z"
},
{
"yt_id": "KUDmLyzDVz0",
"youtube_id": "KUDmLyzDVz0",
"title": "Riyadh Saudi Arabia 4k by Drone | Dream Trips",
"description": "Riyadh Saudi Arabia 4K \u2014 Drone Dream Trips",
"tags": [
"cityscape",
"saudi",
"riyadh"
],
"category": "cityscape",
"source": "youtube",
"status": "published",
"youtube_channel": "Dream Trips",
"lat": 24.8792,
"lon": 46.13845,
"shot_lat": 24.8792,
"shot_lon": 46.13845,
"thumb_url": "https://i.ytimg.com/vi/KUDmLyzDVz0/maxresdefault.jpg",
"ai_quality_score": 7,
"duration_s": 0,
"price_usd": 0,
"resolution": "HD",
"published_at": "2025-11-20T00:55:54.083247Z"
},
{
"yt_id": "09ETJ34p6fU",
"youtube_id": "09ETJ34p6fU",
"title": "Unveiling Saudi Arabia: 4K Drone Footage 4K | Aerial Views & Nightscapes | \ud83d\ude81\u2728",
"description": "Unveiling Saudi Arabia \u2014 4K Drone Nightscapes",
"tags": [
"cityscape",
"saudi",
"night-flight"
],
"category": "cityscape",
"source": "youtube",
"status": "published",
"youtube_channel": "Travel With Marti",
"lat": 24.48355,
"lon": 46.5098,
"shot_lat": 24.48355,
"shot_lon": 46.5098,
"thumb_url": "https://i.ytimg.com/vi/09ETJ34p6fU/maxresdefault.jpg",
"ai_quality_score": 7,
"duration_s": 0,
"price_usd": 0,
"resolution": "HD",
"published_at": "2025-07-20T00:51:41.083247Z"
},
{
"yt_id": "G7lKCKauKZo",
"youtube_id": "G7lKCKauKZo",
"title": "Aerial View of Petra Jordan | Drone View Petra 4k",
"description": "Aerial View of Petra Jordan \u2014 Drone 4K",
"tags": [
"ruins-heritage",
"jordan",
"petra"
],
"category": "ruins-heritage",
"source": "youtube",
"status": "published",
"youtube_channel": "Explore Everywhere",
"lat": 30.23675,
"lon": 35.05965,
"shot_lat": 30.23675,
"shot_lon": 35.05965,
"thumb_url": "https://i.ytimg.com/vi/G7lKCKauKZo/maxresdefault.jpg",
"ai_quality_score": 7,
"duration_s": 0,
"price_usd": 0,
"resolution": "HD",
"published_at": "2025-07-22T11:51:13.083247Z"
},
{
"yt_id": "1Zf0U4EeCNM",
"youtube_id": "1Zf0U4EeCNM",
"title": "\ud83c\udf34 Costa Rica in 4K Ultra HD \u2013 Stunning Drone Aerial Footage of Tropical Paradise",
"description": "Costa Rica 4K Ultra HD \u2014 Tropical Paradise Drone",
"tags": [
"forest",
"costa-rica",
"tropical"
],
"category": "forest",
"source": "youtube",
"status": "published",
"youtube_channel": "Drone Snap",
"lat": 9.73505,
"lon": -84.78865,
"shot_lat": 9.73505,
"shot_lon": -84.78865,
"thumb_url": "https://i.ytimg.com/vi/1Zf0U4EeCNM/maxresdefault.jpg",
"ai_quality_score": 7,
"duration_s": 0,
"price_usd": 0,
"resolution": "HD",
"published_at": "2025-10-01T18:42:25.083247Z"
},
{
"yt_id": "wjYZ0LgzK10",
"youtube_id": "wjYZ0LgzK10",
"title": "Caribbean Beaches Aerial Journey in 4K | Chill Island Vibes",
"description": "Caribbean Beaches Aerial Journey 4K \u2014 Island Vibes",
"tags": [
"ocean",
"caribbean",
"beach"
],
"category": "ocean",
"source": "youtube",
"status": "published",
"youtube_channel": "Alejandro Torres",
"lat": 18.0572,
"lon": -77.7353,
"shot_lat": 18.0572,
"shot_lon": -77.7353,
"thumb_url": "https://i.ytimg.com/vi/wjYZ0LgzK10/maxresdefault.jpg",
"ai_quality_score": 7,
"duration_s": 0,
"price_usd": 0,
"resolution": "HD",
"published_at": "2025-05-10T12:10:10.083247Z"
},
{
"yt_id": "GwMLnuOwHME",
"youtube_id": "GwMLnuOwHME",
"title": "Costa Rica from Above 4K UHD - A Cinematic Drone Journey",
"description": "Costa Rica from Above 4K UHD \u2014 Cinematic Drone",
"tags": [
"forest",
"costa-rica",
"cinematic"
],
"category": "forest",
"source": "youtube",
"status": "published",
"youtube_channel": "Clairmont",
"lat": 9.80365,
"lon": -83.7787,
"shot_lat": 9.80365,
"shot_lon": -83.7787,
"thumb_url": "https://i.ytimg.com/vi/GwMLnuOwHME/maxresdefault.jpg",
"ai_quality_score": 7,
"duration_s": 0,
"price_usd": 0,
"resolution": "HD",
"published_at": "2026-01-21T21:02:47.083247Z"
},
{
"yt_id": "kcZDpNHkV8o",
"youtube_id": "kcZDpNHkV8o",
"title": "Epic FPV Drone Flights in Costa Rica",
"description": "Epic FPV Drone Flights in Costa Rica",
"tags": [
"fpv-racing",
"costa-rica",
"fpv"
],
"category": "fpv-racing",
"source": "youtube",
"status": "published",
"youtube_channel": "Danny Mcgee",
"lat": 10.6813,
"lon": -83.84835,
"shot_lat": 10.6813,
"shot_lon": -83.84835,
"thumb_url": "https://i.ytimg.com/vi/kcZDpNHkV8o/maxresdefault.jpg",
"ai_quality_score": 7,
"duration_s": 0,
"price_usd": 0,
"resolution": "HD",
"published_at": "2026-01-06T04:38:36.083247Z"
},
{
"yt_id": "U1z_jgev1YE",
"youtube_id": "U1z_jgev1YE",
"title": "Peace of Paradise: 4K Drone Footage From the Caribbean Sea",
"description": "Peace of Paradise \u2014 4K Drone from Caribbean Sea",
"tags": [
"ocean",
"caribbean",
"paradise"
],
"category": "ocean",
"source": "youtube",
"status": "published",
"youtube_channel": "MyTranquilitee",
"lat": 19.98995,
"lon": -75.198,
"shot_lat": 19.98995,
"shot_lon": -75.198,
"thumb_url": "https://i.ytimg.com/vi/U1z_jgev1YE/maxresdefault.jpg",
"ai_quality_score": 7,
"duration_s": 0,
"price_usd": 0,
"resolution": "HD",
"published_at": "2026-01-29T18:42:05.083247Z"
},
{
"yt_id": "lWF1CdTNa1A",
"youtube_id": "lWF1CdTNa1A",
"title": "Costa Rica 4K: Epische Drohnen-Highlights & Roadtrip Paradies \ud83c\udde8\ud83c\uddf7\ud83d\ude81",
"description": "Costa Rica 4K \u2014 Drone Highlights",
"tags": [
"landscape",
"costa-rica"
],
"category": "landscape",
"source": "youtube",
"status": "published",
"youtube_channel": "MrUniqueOnTour",
"lat": 9.307,
"lon": -83.59285,
"shot_lat": 9.307,
"shot_lon": -83.59285,
"thumb_url": "https://i.ytimg.com/vi/lWF1CdTNa1A/maxresdefault.jpg",
"ai_quality_score": 7,
"duration_s": 0,
"price_usd": 0,
"resolution": "HD",
"published_at": "2026-01-02T15:51:18.083247Z"
},
{
"yt_id": "pm31ADdfBSE",
"youtube_id": "pm31ADdfBSE",
"title": "CARIBBEAN Drone 4K Footage (ULTRA HD) | Turquoise Waters Tropical Beaches & Island Dreams 24/7",
"description": "Caribbean Drone 4K UHD \u2014 Turquoise Beaches 24/7",
"tags": [
"ocean",
"caribbean",
"island"
],
"category": "ocean",
"source": "youtube",
"status": "published",
"youtube_channel": "Tranquil Aura 4K",
"lat": 17.3686,
"lon": -65.64675,
"shot_lat": 17.3686,
"shot_lon": -65.64675,
"thumb_url": "https://i.ytimg.com/vi/pm31ADdfBSE/maxresdefault.jpg",
"ai_quality_score": 7,
"duration_s": 0,
"price_usd": 0,
"resolution": "HD",
"published_at": "2026-01-14T00:48:54.083247Z"
},
{
"yt_id": "WbpkOnnv5-A",
"youtube_id": "WbpkOnnv5-A",
"title": "Punta Uva Beach, Costa Rica // Drone 4K",
"description": "Punta Uva Beach Costa Rica \u2014 Drone 4K",
"tags": [
"ocean",
"costa-rica",
"beach"
],
"category": "ocean",
"source": "youtube",
"status": "published",
"youtube_channel": "Jared Dillingham",
"lat": 9.92975,
"lon": -83.019,
"shot_lat": 9.92975,
"shot_lon": -83.019,
"thumb_url": "https://i.ytimg.com/vi/WbpkOnnv5-A/maxresdefault.jpg",
"ai_quality_score": 7,
"duration_s": 0,
"price_usd": 0,
"resolution": "HD",
"published_at": "2026-04-13T02:36:33.083247Z"
},
{
"yt_id": "SUX5jXeDPLg",
"youtube_id": "SUX5jXeDPLg",
"title": "Caribbean Paradise Beaches in 4K | Aruba, Punta Cana & Bahamas Turquoise Waters Drone Footage UHD",
"description": "Caribbean Paradise Beaches 4K \u2014 Aruba, Punta Cana, Bahamas",
"tags": [
"ocean",
"caribbean",
"aruba",
"bahamas"
],
"category": "ocean",
"source": "youtube",
"status": "published",
"youtube_channel": "Escape Pulse 4K",
"lat": 17.7977,
"lon": -69.1206,
"shot_lat": 17.7977,
"shot_lon": -69.1206,
"thumb_url": "https://i.ytimg.com/vi/SUX5jXeDPLg/maxresdefault.jpg",
"ai_quality_score": 7,
"duration_s": 0,
"price_usd": 0,
"resolution": "HD",
"published_at": "2025-12-11T10:39:00.083247Z"
}
]