[
{
"yt_id": "9RyFQy-Kfso",
"youtube_id": "9RyFQy-Kfso",
"title": "Ukraine Using Switchblade 300 'Kamikaze Drones' / Loitering Munitions",
"description": "Ukraine Using Switchblade 300 Kamikaze Drones",
"tags": [
"war-platform",
"switchblade",
"ukraine",
"loitering"
],
"category": "war-platform",
"source": "youtube",
"status": "published",
"youtube_channel": "The Armourer's Bench",
"lat": 40.9636,
"lon": 33.8176,
"shot_lat": 40.9636,
"shot_lon": 33.8176,
"thumb_url": "https://i.ytimg.com/vi/9RyFQy-Kfso/maxresdefault.jpg",
"ai_quality_score": 7,
"duration_s": 0,
"price_usd": 0,
"resolution": "HD",
"published_at": "2025-04-24T11:36:56.477465Z"
},
{
"yt_id": "KkNF5ibTd9o",
"youtube_id": "KkNF5ibTd9o",
"title": "US Switchblade 600 Kamikaze Drone Proves Highly Effective",
"description": "US Switchblade 600 Kamikaze Drone Proves Highly Effective",
"tags": [
"war-platform",
"switchblade",
"us",
"600"
],
"category": "war-platform",
"source": "youtube",
"status": "published",
"youtube_channel": "Defense News",
"lat": 38.8946,
"lon": -78.3191,
"shot_lat": 38.8946,
"shot_lon": -78.3191,
"thumb_url": "https://i.ytimg.com/vi/KkNF5ibTd9o/maxresdefault.jpg",
"ai_quality_score": 7,
"duration_s": 0,
"price_usd": 0,
"resolution": "HD",
"published_at": "2025-09-06T21:48:12.477465Z"
},
{
"yt_id": "i7YfYTh0CRo",
"youtube_id": "i7YfYTh0CRo",
"title": "Discover technology of US Switchblade 600 anti-armor loitering munition for Ukraine",
"description": "Technology of US Switchblade 600 anti-armor loitering munition",
"tags": [
"war-platform",
"switchblade",
"anti-armor"
],
"category": "war-platform",
"source": "youtube",
"status": "published",
"youtube_channel": "DefenseWebTV",
"lat": 39.0058,
"lon": 32.6683,
"shot_lat": 39.0058,
"shot_lon": 32.6683,
"thumb_url": "https://i.ytimg.com/vi/i7YfYTh0CRo/maxresdefault.jpg",
"ai_quality_score": 7,
"duration_s": 0,
"price_usd": 0,
"resolution": "HD",
"published_at": "2025-12-11T04:25:42.477465Z"
},
{
"yt_id": "Rb6m_wdSrFQ",
"youtube_id": "Rb6m_wdSrFQ",
"title": "Video of a Switchblade 300 loitering munition strike on a Russian ATGM team by Ukrainian SSO",
"description": "Switchblade 300 Strike on Russian ATGM team \u2014 Ukrainian SSO",
"tags": [
"war-ukraine",
"switchblade",
"footage",
"sso"
],
"category": "war-ukraine",
"source": "youtube",
"status": "published",
"youtube_channel": "Michael O",
"lat": 49.641,
"lon": 31.5317,
"shot_lat": 49.641,
"shot_lon": 31.5317,
"thumb_url": "https://i.ytimg.com/vi/Rb6m_wdSrFQ/maxresdefault.jpg",
"ai_quality_score": 7,
"duration_s": 0,
"price_usd": 0,
"resolution": "HD",
"published_at": "2025-06-09T00:52:27.477465Z"
},
{
"yt_id": "viDZ77SFveg",
"youtube_id": "viDZ77SFveg",
"title": "Switchblade 600 Loitering missile | Kamikazi drone How it works #loiteringmunition #drones",
"description": "Switchblade 600 Loitering Missile \u2014 How It Works",
"tags": [
"war-platform",
"switchblade",
"explainer"
],
"category": "war-platform",
"source": "youtube",
"status": "published",
"youtube_channel": "AiTelly",
"lat": 41.3941,
"lon": 32.5195,
"shot_lat": 41.3941,
"shot_lon": 32.5195,
"thumb_url": "https://i.ytimg.com/vi/viDZ77SFveg/maxresdefault.jpg",
"ai_quality_score": 7,
"duration_s": 0,
"price_usd": 0,
"resolution": "HD",
"published_at": "2025-11-09T17:19:41.477465Z"
},
{
"yt_id": "m-5ML_j49rU",
"youtube_id": "m-5ML_j49rU",
"title": "Switchblade 300 - Tactical Missile System - Air Sea Ground - loitering munition - AeroVironment Inc",
"description": "Switchblade 300 Tactical Missile System \u2014 AeroVironment",
"tags": [
"war-platform",
"switchblade",
"aerovironment"
],
"category": "war-platform",
"source": "youtube",
"status": "published",
"youtube_channel": "MechDesignTV",
"lat": 39.787,
"lon": 33.955,
"shot_lat": 39.787,
"shot_lon": 33.955,
"thumb_url": "https://i.ytimg.com/vi/m-5ML_j49rU/maxresdefault.jpg",
"ai_quality_score": 7,
"duration_s": 0,
"price_usd": 0,
"resolution": "HD",
"published_at": "2026-02-10T13:22:18.477465Z"
},
{
"yt_id": "7frKW1Zcyu0",
"youtube_id": "7frKW1Zcyu0",
"title": "Russia blows up NATO-supplied Howitzer in Ukraine; Putin's men struck with Lancet drone | Watch",
"description": "Russia Blows Up NATO-Supplied Howitzer \u2014 Lancet Drone",
"tags": [
"war-russia",
"lancet",
"howitzer",
"russia"
],
"category": "war-russia",
"source": "youtube",
"status": "published",
"youtube_channel": "Hindustan Times",
"lat": 55.004,
"lon": 38.1543,
"shot_lat": 55.004,
"shot_lon": 38.1543,
"thumb_url": "https://i.ytimg.com/vi/7frKW1Zcyu0/maxresdefault.jpg",
"ai_quality_score": 7,
"duration_s": 0,
"price_usd": 0,
"resolution": "HD",
"published_at": "2025-09-30T20:42:36.477465Z"
},
{
"yt_id": "b9M6Sxflr_w",
"youtube_id": "b9M6Sxflr_w",
"title": "Russia\u2019s lancet loitering munition spells doom for NATO supplied Howitzer in Ukraine | Watch",
"description": "Russia's Lancet Loitering Munition Spells Doom for NATO Howitzer",
"tags": [
"war-russia",
"lancet",
"russia",
"howitzer"
],
"category": "war-russia",
"source": "youtube",
"status": "published",
"youtube_channel": "Hindustan Times",
"lat": 57.0182,
"lon": 37.6068,
"shot_lat": 57.0182,
"shot_lon": 37.6068,
"thumb_url": "https://i.ytimg.com/vi/b9M6Sxflr_w/maxresdefault.jpg",
"ai_quality_score": 7,
"duration_s": 0,
"price_usd": 0,
"resolution": "HD",
"published_at": "2025-07-03T23:24:02.477465Z"
},
{
"yt_id": "ioGBNcTz-xo",
"youtube_id": "ioGBNcTz-xo",
"title": "ZALA Lancet (Russian Kamikaze Drone) - A Short History",
"description": "ZALA Lancet Russian Kamikaze Drone \u2014 Short History",
"tags": [
"war-platform",
"lancet",
"history"
],
"category": "war-platform",
"source": "youtube",
"status": "published",
"youtube_channel": "A Short History",
"lat": 39.5494,
"lon": 33.7006,
"shot_lat": 39.5494,
"shot_lon": 33.7006,
"thumb_url": "https://i.ytimg.com/vi/ioGBNcTz-xo/maxresdefault.jpg",
"ai_quality_score": 7,
"duration_s": 0,
"price_usd": 0,
"resolution": "HD",
"published_at": "2025-07-11T15:22:10.477465Z"
},
{
"yt_id": "NR5coB0wptg",
"youtube_id": "NR5coB0wptg",
"title": "ZALA LANCET UAV - NEW LOITERING MUNITION from KALASHNIKOV @ ARMY-2019",
"description": "ZALA Lancet UAV \u2014 New Loitering Munition from Kalashnikov",
"tags": [
"war-platform",
"lancet",
"kalashnikov"
],
"category": "war-platform",
"source": "youtube",
"status": "published",
"youtube_channel": "Defense Tech Russia",
"lat": 38.8165,
"lon": 31.8724,
"shot_lat": 38.8165,
"shot_lon": 31.8724,
"thumb_url": "https://i.ytimg.com/vi/NR5coB0wptg/maxresdefault.jpg",
"ai_quality_score": 7,
"duration_s": 0,
"price_usd": 0,
"resolution": "HD",
"published_at": "2025-09-18T02:29:33.477465Z"
},
{
"yt_id": "PzVBhqoblrU",
"youtube_id": "PzVBhqoblrU",
"title": "Putin's Suicide Lancet Drones 'Paralyse' Ukrainians Strongholds, Destroy Western Arms | Watch",
"description": "Putin's Suicide Lancet Drones Paralyse Ukrainian Strongholds",
"tags": [
"war-russia",
"lancet",
"russia"
],
"category": "war-russia",
"source": "youtube",
"status": "published",
"youtube_channel": "Hindustan Times",
"lat": 54.5636,
"lon": 36.5538,
"shot_lat": 54.5636,
"shot_lon": 36.5538,
"thumb_url": "https://i.ytimg.com/vi/PzVBhqoblrU/maxresdefault.jpg",
"ai_quality_score": 7,
"duration_s": 0,
"price_usd": 0,
"resolution": "HD",
"published_at": "2025-11-18T02:20:24.477465Z"
},
{
"yt_id": "9bwvWscERPw",
"youtube_id": "9bwvWscERPw",
"title": "Russia's loitering munition Lancet-3 in 60 seconds",
"description": "Russia's Lancet-3 in 60 Seconds",
"tags": [
"war-platform",
"lancet",
"explainer"
],
"category": "war-platform",
"source": "youtube",
"status": "published",
"youtube_channel": "CGTN",
"lat": 39.1357,
"lon": 31.7584,
"shot_lat": 39.1357,
"shot_lon": 31.7584,
"thumb_url": "https://i.ytimg.com/vi/9bwvWscERPw/maxresdefault.jpg",
"ai_quality_score": 7,
"duration_s": 0,
"price_usd": 0,
"resolution": "HD",
"published_at": "2026-03-08T07:58:29.477465Z"
},
{
"yt_id": "u96cG09PkZA",
"youtube_id": "u96cG09PkZA",
"title": "12 Houthi Drones ATTACK U.S. Ship - Then THIS Happened",
"description": "12 Houthi Drones Attack US Ship \u2014 Then This Happened",
"tags": [
"war-mideast",
"houthi",
"us-navy",
"red-sea"
],
"category": "war-mideast",
"source": "youtube",
"status": "published",
"youtube_channel": "Beyond Military",
"lat": 16.5334,
"lon": 49.5235,
"shot_lat": 16.5334,
"shot_lon": 49.5235,
"thumb_url": "https://i.ytimg.com/vi/u96cG09PkZA/maxresdefault.jpg",
"ai_quality_score": 7,
"duration_s": 0,
"price_usd": 0,
"resolution": "HD",
"published_at": "2026-04-19T12:06:21.477465Z"
},
{
"yt_id": "3BOhWXqYJGk",
"youtube_id": "3BOhWXqYJGk",
"title": "Red Sea War: Houthis Strike U.S. Warships & Tel Aviv \u2013 Watch Missiles, Drones and Chaos Unleash",
"description": "Red Sea War \u2014 Houthis Strike US Warships & Tel Aviv",
"tags": [
"war-mideast",
"houthi",
"red-sea",
"attack"
],
"category": "war-mideast",
"source": "youtube",
"status": "published",
"youtube_channel": "Oneindia News",
"lat": 16.3795,
"lon": 47.4688,
"shot_lat": 16.3795,
"shot_lon": 47.4688,
"thumb_url": "https://i.ytimg.com/vi/3BOhWXqYJGk/maxresdefault.jpg",
"ai_quality_score": 7,
"duration_s": 0,
"price_usd": 0,
"resolution": "HD",
"published_at": "2026-04-01T21:14:54.477465Z"
},
{
"yt_id": "6Ukckw-Wtdw",
"youtube_id": "6Ukckw-Wtdw",
"title": "Houthis ATTACK the WRONG US Navy Ship - BIG MISTAKE\u2026",
"description": "Houthis Attack the Wrong US Navy Ship",
"tags": [
"war-mideast",
"houthi",
"us-navy"
],
"category": "war-mideast",
"source": "youtube",
"status": "published",
"youtube_channel": "Navy Media ",
"lat": 15.9865,
"lon": 49.3789,
"shot_lat": 15.9865,
"shot_lon": 49.3789,
"thumb_url": "https://i.ytimg.com/vi/6Ukckw-Wtdw/maxresdefault.jpg",
"ai_quality_score": 7,
"duration_s": 0,
"price_usd": 0,
"resolution": "HD",
"published_at": "2026-03-18T04:50:04.477465Z"
},
{
"yt_id": "3pBwXSczOtE",
"youtube_id": "3pBwXSczOtE",
"title": "Houthi missile, drone attack on U.S. Navy ships failed, official says",
"description": "Houthi Missile/Drone Attack on US Navy Ships Failed",
"tags": [
"war-mideast",
"houthi",
"us-navy"
],
"category": "war-mideast",
"source": "youtube",
"status": "published",
"youtube_channel": "ABC 7 Chicago",
"lat": 15.9991,
"lon": 47.095,
"shot_lat": 15.9991,
"shot_lon": 47.095,
"thumb_url": "https://i.ytimg.com/vi/3pBwXSczOtE/maxresdefault.jpg",
"ai_quality_score": 7,
"duration_s": 0,
"price_usd": 0,
"resolution": "HD",
"published_at": "2025-12-30T22:16:02.477465Z"
},
{
"yt_id": "wB9PDE3yFPQ",
"youtube_id": "wB9PDE3yFPQ",
"title": "Houthis Tried to Hit U.S. Carrier - BIG MISTAKE",
"description": "Houthis Tried to Hit US Carrier \u2014 Big Mistake",
"tags": [
"war-mideast",
"houthi",
"us-navy",
"carrier"
],
"category": "war-mideast",
"source": "youtube",
"status": "published",
"youtube_channel": "Beyond Military",
"lat": 16.6861,
"lon": 47.2453,
"shot_lat": 16.6861,
"shot_lon": 47.2453,
"thumb_url": "https://i.ytimg.com/vi/wB9PDE3yFPQ/maxresdefault.jpg",
"ai_quality_score": 7,
"duration_s": 0,
"price_usd": 0,
"resolution": "HD",
"published_at": "2025-12-01T13:04:32.477465Z"
},
{
"yt_id": "OQnI_n26NtY",
"youtube_id": "OQnI_n26NtY",
"title": "Houthis Launch SURPRISE Attack On US Naval Crew; Missiles, Drones Fired At American Aircraft Carrier",
"description": "Houthis Launch Surprise Attack on US Aircraft Carrier",
"tags": [
"war-mideast",
"houthi",
"us-navy"
],
"category": "war-mideast",
"source": "youtube",
"status": "published",
"youtube_channel": "Times Of India",
"lat": 15.3319,
"lon": 47.7694,
"shot_lat": 15.3319,
"shot_lon": 47.7694,
"thumb_url": "https://i.ytimg.com/vi/OQnI_n26NtY/maxresdefault.jpg",
"ai_quality_score": 7,
"duration_s": 0,
"price_usd": 0,
"resolution": "HD",
"published_at": "2025-12-29T21:59:46.477465Z"
},
{
"yt_id": "saVprHbEBhQ",
"youtube_id": "saVprHbEBhQ",
"title": "Houthis Launch Missile, Drone Attacks on US Warships off Yemen\u2019s Coast | Dawn News English",
"description": "Houthis Launch Missile, Drone Attacks on US Warships off Yemen",
"tags": [
"war-mideast",
"houthi",
"yemen",
"us-navy"
],
"category": "war-mideast",
"source": "youtube",
"status": "published",
"youtube_channel": "DawnNews English",
"lat": 16.5631,
"lon": 48.0664,
"shot_lat": 16.5631,
"shot_lon": 48.0664,
"thumb_url": "https://i.ytimg.com/vi/saVprHbEBhQ/maxresdefault.jpg",
"ai_quality_score": 7,
"duration_s": 0,
"price_usd": 0,
"resolution": "HD",
"published_at": "2025-07-14T01:31:22.477465Z"
},
{
"yt_id": "3BHIx2W9v7o",
"youtube_id": "3BHIx2W9v7o",
"title": "Houthi Red Sea Blitz: 37 Drone Fired In 90 Mins on US Destroyers, Merchant Ships| Details",
"description": "Houthi Red Sea Blitz \u2014 37 Drones in 90 Mins on US Destroyers",
"tags": [
"war-mideast",
"houthi",
"destroyer",
"red-sea"
],
"category": "war-mideast",
"source": "youtube",
"status": "published",
"youtube_channel": "Times Of India",
"lat": 14.7685,
"lon": 49.5367,
"shot_lat": 14.7685,
"shot_lon": 49.5367,
"thumb_url": "https://i.ytimg.com/vi/3BHIx2W9v7o/maxresdefault.jpg",
"ai_quality_score": 7,
"duration_s": 0,
"price_usd": 0,
"resolution": "HD",
"published_at": "2025-05-12T06:11:04.477465Z"
},
{
"yt_id": "E9nssoiLMMs",
"youtube_id": "E9nssoiLMMs",
"title": "US fights off Houthi drone attack in Red Sea",
"description": "US Fights Off Houthi Drone Attack in Red Sea",
"tags": [
"war-mideast",
"houthi",
"us-navy"
],
"category": "war-mideast",
"source": "youtube",
"status": "published",
"youtube_channel": "FOX31 Denver",
"lat": 14.2357,
"lon": 47.2117,
"shot_lat": 14.2357,
"shot_lon": 47.2117,
"thumb_url": "https://i.ytimg.com/vi/E9nssoiLMMs/maxresdefault.jpg",
"ai_quality_score": 7,
"duration_s": 0,
"price_usd": 0,
"resolution": "HD",
"published_at": "2025-12-04T07:20:40.477465Z"
},
{
"yt_id": "54ZkapOqfrM",
"youtube_id": "54ZkapOqfrM",
"title": "China Flies Drone Into Taiwan\u2019s Airspace for FIRST Time Then THIS Happened!",
"description": "China Flies Drone into Taiwan's Airspace for First Time",
"tags": [
"war-mideast",
"taiwan",
"china",
"airspace"
],
"category": "war-mideast",
"source": "youtube",
"status": "published",
"youtube_channel": "Max Afterburner",
"lat": 25.183,
"lon": 122.0622,
"shot_lat": 25.183,
"shot_lon": 122.0622,
"thumb_url": "https://i.ytimg.com/vi/54ZkapOqfrM/maxresdefault.jpg",
"ai_quality_score": 7,
"duration_s": 0,
"price_usd": 0,
"resolution": "HD",
"published_at": "2026-02-12T11:39:10.477465Z"
},
{
"yt_id": "vlQ5OBkiEWM",
"youtube_id": "vlQ5OBkiEWM",
"title": "Taiwan Builds Kamikaze Sea Drones to Counter China\u2019s Threat | Vantage with Palki Sharma | N18G",
"description": "Taiwan Builds Kamikaze Sea Drones to Counter China \u2014 Vantage",
"tags": [
"war-mideast",
"taiwan",
"sea-drone",
"china"
],
"category": "war-mideast",
"source": "youtube",
"status": "published",
"youtube_channel": "Firstpost",
"lat": 26.3671,
"lon": 122.0178,
"shot_lat": 26.3671,
"shot_lon": 122.0178,
"thumb_url": "https://i.ytimg.com/vi/vlQ5OBkiEWM/maxresdefault.jpg",
"ai_quality_score": 7,
"duration_s": 0,
"price_usd": 0,
"resolution": "HD",
"published_at": "2025-07-24T20:46:43.477465Z"
},
{
"yt_id": "Q9nrKCrhFAo",
"youtube_id": "Q9nrKCrhFAo",
"title": "Taiwan Invasion Soon? China Unveils Drone 'Mothership' Jiu Tian That Can Carry 100 Attack Drones",
"description": "Taiwan Invasion Soon? China Unveils Jiu Tian Drone Mothership",
"tags": [
"war-platform",
"china",
"mothership",
"swarm"
],
"category": "war-platform",
"source": "youtube",
"status": "published",
"youtube_channel": "Hindustan Times",
"lat": 38.6127,
"lon": 114.9707,
"shot_lat": 38.6127,
"shot_lon": 114.9707,
"thumb_url": "https://i.ytimg.com/vi/Q9nrKCrhFAo/maxresdefault.jpg",
"ai_quality_score": 7,
"duration_s": 0,
"price_usd": 0,
"resolution": "HD",
"published_at": "2025-11-04T11:45:55.477465Z"
},
{
"yt_id": "Zrwv9sMAKC4",
"youtube_id": "Zrwv9sMAKC4",
"title": "Taiwan Attack Prep? China Unveils Giant Sea Bulldozer After Huge Troop-Carrier Drone | PLA | War",
"description": "China Unveils Sea Bulldozer + Huge Troop-Carrier Drone",
"tags": [
"war-platform",
"china",
"troop-carrier"
],
"category": "war-platform",
"source": "youtube",
"status": "published",
"youtube_channel": "Hindustan Times",
"lat": 40.5045,
"lon": 115.3316,
"shot_lat": 40.5045,
"shot_lon": 115.3316,
"thumb_url": "https://i.ytimg.com/vi/Zrwv9sMAKC4/maxresdefault.jpg",
"ai_quality_score": 7,
"duration_s": 0,
"price_usd": 0,
"resolution": "HD",
"published_at": "2025-05-01T20:20:49.477465Z"
},
{
"yt_id": "OLl5xgPl7VA",
"youtube_id": "OLl5xgPl7VA",
"title": "Swarms over the Strait: Drone Warfare in a Future Fight to Defend Taiwan",
"description": "Swarms Over the Strait \u2014 Drone Warfare in Future Taiwan Fight",
"tags": [
"war-swarm",
"taiwan",
"china",
"swarm",
"analysis"
],
"category": "war-swarm",
"source": "youtube",
"status": "published",
"youtube_channel": "Center for a New American Security (CNAS)",
"lat": 25.3546,
"lon": 122.5383,
"shot_lat": 25.3546,
"shot_lon": 122.5383,
"thumb_url": "https://i.ytimg.com/vi/OLl5xgPl7VA/maxresdefault.jpg",
"ai_quality_score": 7,
"duration_s": 0,
"price_usd": 0,
"resolution": "HD",
"published_at": "2025-08-03T19:09:38.477465Z"
},
{
"yt_id": "ds_WLvutOJo",
"youtube_id": "ds_WLvutOJo",
"title": "TAIWAN vs CHINA LIVE: Taiwan Unleashes Secret Drone Army Amid Chinese Military Threat | WION Live",
"description": "Taiwan vs China Live \u2014 Taiwan Unleashes Secret Drone Army",
"tags": [
"war-mideast",
"taiwan",
"china",
"drone-army"
],
"category": "war-mideast",
"source": "youtube",
"status": "published",
"youtube_channel": "WION",
"lat": 24.4372,
"lon": 121.4829,
"shot_lat": 24.4372,
"shot_lon": 121.4829,
"thumb_url": "https://i.ytimg.com/vi/ds_WLvutOJo/maxresdefault.jpg",
"ai_quality_score": 7,
"duration_s": 0,
"price_usd": 0,
"resolution": "HD",
"published_at": "2025-12-25T01:07:16.477465Z"
},
{
"yt_id": "ijsJclHEosc",
"youtube_id": "ijsJclHEosc",
"title": "China Deploys Jets Turned Drones at Bases Near Taiwan",
"description": "China Deploys Jets Turned Drones at Bases Near Taiwan",
"tags": [
"war-platform",
"china",
"conversion",
"taiwan"
],
"category": "war-platform",
"source": "youtube",
"status": "published",
"youtube_channel": "NTD",
"lat": 24.9697,
"lon": 121.3368,
"shot_lat": 24.9697,
"shot_lon": 121.3368,
"thumb_url": "https://i.ytimg.com/vi/ijsJclHEosc/maxresdefault.jpg",
"ai_quality_score": 7,
"duration_s": 0,
"price_usd": 0,
"resolution": "HD",
"published_at": "2026-03-05T04:04:21.477465Z"
},
{
"yt_id": "WddKQJeVi5U",
"youtube_id": "WddKQJeVi5U",
"title": "\u2018Hellscape\u2019 Advances as U.S., Taiwan Push Drone Warfare to Counter China | Taiwan Talks EP639",
"description": "Hellscape Advances \u2014 US, Taiwan Push Drone Warfare vs China",
"tags": [
"war-swarm",
"taiwan",
"us",
"hellscape"
],
"category": "war-swarm",
"source": "youtube",
"status": "published",
"youtube_channel": "Taiwan Talks",
"lat": 23.9716,
"lon": 122.5605,
"shot_lat": 23.9716,
"shot_lon": 122.5605,
"thumb_url": "https://i.ytimg.com/vi/WddKQJeVi5U/maxresdefault.jpg",
"ai_quality_score": 7,
"duration_s": 0,
"price_usd": 0,
"resolution": "HD",
"published_at": "2026-01-11T00:39:48.477465Z"
},
{
"yt_id": "86vnybUnRKQ",
"youtube_id": "86vnybUnRKQ",
"title": "China Deploys Converted Jet Drones Close to Taiwan Strait: Report",
"description": "China Deploys Converted Jet Drones Close to Taiwan Strait",
"tags": [
"war-platform",
"china",
"taiwan",
"conversion"
],
"category": "war-platform",
"source": "youtube",
"status": "published",
"youtube_channel": "The Indian Express",
"lat": 26.3941,
"lon": 121.7145,
"shot_lat": 26.3941,
"shot_lon": 121.7145,
"thumb_url": "https://i.ytimg.com/vi/86vnybUnRKQ/maxresdefault.jpg",
"ai_quality_score": 7,
"duration_s": 0,
"price_usd": 0,
"resolution": "HD",
"published_at": "2025-09-22T20:11:53.477465Z"
},
{
"yt_id": "Isov476OZIQ",
"youtube_id": "Isov476OZIQ",
"title": "Taiwan to Blow Up China Troops With Special Drones? Taipei Prepares for Possible War with PLA",
"description": "Taiwan to Blow Up China Troops With Special Drones",
"tags": [
"war-mideast",
"taiwan",
"china"
],
"category": "war-mideast",
"source": "youtube",
"status": "published",
"youtube_channel": "Hindustan Times",
"lat": 23.6518,
"lon": 121.6137,
"shot_lat": 23.6518,
"shot_lon": 121.6137,
"thumb_url": "https://i.ytimg.com/vi/Isov476OZIQ/maxresdefault.jpg",
"ai_quality_score": 7,
"duration_s": 0,
"price_usd": 0,
"resolution": "HD",
"published_at": "2025-09-04T01:24:14.477465Z"
},
{
"yt_id": "zlSMz_vtSwg",
"youtube_id": "zlSMz_vtSwg",
"title": "The success of Ukraine's drone industry, explained",
"description": "The Success of Ukraine's Drone Industry Explained",
"tags": [
"war-ukraine",
"ukraine",
"industry",
"analysis"
],
"category": "war-ukraine",
"source": "youtube",
"status": "published",
"youtube_channel": "Kyiv Independent",
"lat": 50.0484,
"lon": 31.3469,
"shot_lat": 50.0484,
"shot_lon": 31.3469,
"thumb_url": "https://i.ytimg.com/vi/zlSMz_vtSwg/maxresdefault.jpg",
"ai_quality_score": 7,
"duration_s": 0,
"price_usd": 0,
"resolution": "HD",
"published_at": "2025-05-12T10:16:29.477465Z"
},
{
"yt_id": "I1_t2VisYnY",
"youtube_id": "I1_t2VisYnY",
"title": "Drones in Ukraine - lessons for other countries",
"description": "Drones in Ukraine \u2014 Lessons for Other Countries",
"tags": [
"war-ukraine",
"ukraine",
"lessons",
"analysis"
],
"category": "war-ukraine",
"source": "youtube",
"status": "published",
"youtube_channel": "Perun",
"lat": 50.1069,
"lon": 31.106,
"shot_lat": 50.1069,
"shot_lon": 31.106,
"thumb_url": "https://i.ytimg.com/vi/I1_t2VisYnY/maxresdefault.jpg",
"ai_quality_score": 7,
"duration_s": 0,
"price_usd": 0,
"resolution": "HD",
"published_at": "2025-11-12T22:06:34.477465Z"
},
{
"yt_id": "fVmOBRFlE6E",
"youtube_id": "fVmOBRFlE6E",
"title": "Ukraine shows how budget drones are rewriting the rules of warfare",
"description": "Ukraine Shows How Budget Drones Rewrite Warfare Rules",
"tags": [
"war-ukraine",
"ukraine",
"budget",
"analysis"
],
"category": "war-ukraine",
"source": "youtube",
"status": "published",
"youtube_channel": "Al Jazeera English",
"lat": 50.2803,
"lon": 29.6519,
"shot_lat": 50.2803,
"shot_lon": 29.6519,
"thumb_url": "https://i.ytimg.com/vi/fVmOBRFlE6E/maxresdefault.jpg",
"ai_quality_score": 7,
"duration_s": 0,
"price_usd": 0,
"resolution": "HD",
"published_at": "2025-09-21T12:56:56.477465Z"
},
{
"yt_id": "s2VHy3x5v9o",
"youtube_id": "s2VHy3x5v9o",
"title": "Inside A Ukrainian Secret Ground Drone Factory | Shaping the Future of Ground Battlest",
"description": "Inside a Ukrainian Secret Ground Drone Factory",
"tags": [
"war-ukraine",
"ukraine",
"ugv",
"factory"
],
"category": "war-ukraine",
"source": "youtube",
"status": "published",
"youtube_channel": "UNITED24",
"lat": 49.0374,
"lon": 29.8571,
"shot_lat": 49.0374,
"shot_lon": 29.8571,
"thumb_url": "https://i.ytimg.com/vi/s2VHy3x5v9o/maxresdefault.jpg",
"ai_quality_score": 7,
"duration_s": 0,
"price_usd": 0,
"resolution": "HD",
"published_at": "2026-04-12T12:45:59.477465Z"
},
{
"yt_id": "uuQwjbCAFlE",
"youtube_id": "uuQwjbCAFlE",
"title": "How drone warfare has transformed the battle between Ukraine and Russia",
"description": "How Drone Warfare Has Transformed Ukraine-Russia Battle",
"tags": [
"war-ukraine",
"ukraine",
"russia",
"documentary"
],
"category": "war-ukraine",
"source": "youtube",
"status": "published",
"youtube_channel": "PBS NewsHour",
"lat": 50.232,
"lon": 30.137,
"shot_lat": 50.232,
"shot_lon": 30.137,
"thumb_url": "https://i.ytimg.com/vi/uuQwjbCAFlE/maxresdefault.jpg",
"ai_quality_score": 7,
"duration_s": 0,
"price_usd": 0,
"resolution": "HD",
"published_at": "2026-03-20T19:59:37.477465Z"
},
{
"yt_id": "CH8NKFRV5nk",
"youtube_id": "CH8NKFRV5nk",
"title": "US unveils terrifying drone swarm that uses AI brains to annihilate targets",
"description": "US Unveils Terrifying AI Drone Swarm to Annihilate Targets",
"tags": [
"war-swarm",
"us",
"swarm",
"ai"
],
"category": "war-swarm",
"source": "youtube",
"status": "published",
"youtube_channel": "The Sun",
"lat": 38.5568,
"lon": -75.8918,
"shot_lat": 38.5568,
"shot_lon": -75.8918,
"thumb_url": "https://i.ytimg.com/vi/CH8NKFRV5nk/maxresdefault.jpg",
"ai_quality_score": 7,
"duration_s": 0,
"price_usd": 0,
"resolution": "HD",
"published_at": "2025-09-07T20:53:38.477465Z"
},
{
"yt_id": "KX0ji1sAXl8",
"youtube_id": "KX0ji1sAXl8",
"title": "Anduril Lattice Counter Drone System",
"description": "Anduril Lattice Counter-Drone System",
"tags": [
"war-counter",
"anduril",
"lattice",
"counter-uav"
],
"category": "war-counter",
"source": "youtube",
"status": "published",
"youtube_channel": "Anduril Industries ",
"lat": 38.3795,
"lon": -75.8111,
"shot_lat": 38.3795,
"shot_lon": -75.8111,
"thumb_url": "https://i.ytimg.com/vi/KX0ji1sAXl8/maxresdefault.jpg",
"ai_quality_score": 7,
"duration_s": 0,
"price_usd": 0,
"resolution": "HD",
"published_at": "2026-02-05T16:56:49.477465Z"
},
{
"yt_id": "EMkuLwn1QxQ",
"youtube_id": "EMkuLwn1QxQ",
"title": "Replicator Unleashed: America\u2019s Drone Swarm Revolution",
"description": "Replicator Unleashed \u2014 America's Drone Swarm Revolution",
"tags": [
"war-swarm",
"replicator",
"us",
"swarm"
],
"category": "war-swarm",
"source": "youtube",
"status": "published",
"youtube_channel": "Infographic Vision",
"lat": 37.7048,
"lon": -76.4693,
"shot_lat": 37.7048,
"shot_lon": -76.4693,
"thumb_url": "https://i.ytimg.com/vi/EMkuLwn1QxQ/maxresdefault.jpg",
"ai_quality_score": 7,
"duration_s": 0,
"price_usd": 0,
"resolution": "HD",
"published_at": "2025-06-10T13:20:58.477465Z"
},
{
"yt_id": "mjNP5IOzCbA",
"youtube_id": "mjNP5IOzCbA",
"title": "The State of Modern War: Palantir & Anduril Execs on Drones, AI, and the End of Traditional Warfare",
"description": "State of Modern War \u2014 Palantir & Anduril Execs on Drones/AI",
"tags": [
"war-autonomous",
"palantir",
"anduril",
"ai",
"analysis"
],
"category": "war-autonomous",
"source": "youtube",
"status": "published",
"youtube_channel": "All-In Podcast",
"lat": 39.7334,
"lon": -77.861,
"shot_lat": 39.7334,
"shot_lon": -77.861,
"thumb_url": "https://i.ytimg.com/vi/mjNP5IOzCbA/maxresdefault.jpg",
"ai_quality_score": 7,
"duration_s": 0,
"price_usd": 0,
"resolution": "HD",
"published_at": "2025-09-16T09:34:56.477465Z"
},
{
"yt_id": "01d7keWSc2w",
"youtube_id": "01d7keWSc2w",
"title": "Could Anduril\u2019s AI-driven drones, subs help Taiwan counter China?",
"description": "Could Anduril's AI Drones Help Taiwan Counter China?",
"tags": [
"war-autonomous",
"anduril",
"taiwan",
"china"
],
"category": "war-autonomous",
"source": "youtube",
"status": "published",
"youtube_channel": "Straight Arrow News",
"lat": 25.9144,
"lon": 121.2891,
"shot_lat": 25.9144,
"shot_lon": 121.2891,
"thumb_url": "https://i.ytimg.com/vi/01d7keWSc2w/maxresdefault.jpg",
"ai_quality_score": 7,
"duration_s": 0,
"price_usd": 0,
"resolution": "HD",
"published_at": "2025-06-08T19:58:32.477465Z"
},
{
"yt_id": "CjsfaR-JcyU",
"youtube_id": "CjsfaR-JcyU",
"title": "Anduril: The Startup Building Surveillance Systems & Drone-Smashers For The Military | NBC News Now",
"description": "Anduril \u2014 Startup Building Drone-Smashers for Military (NBC)",
"tags": [
"war-counter",
"anduril",
"counter-uav"
],
"category": "war-counter",
"source": "youtube",
"status": "published",
"youtube_channel": "NBC News",
"lat": 40.3205,
"lon": -75.8228,
"shot_lat": 40.3205,
"shot_lon": -75.8228,
"thumb_url": "https://i.ytimg.com/vi/CjsfaR-JcyU/maxresdefault.jpg",
"ai_quality_score": 7,
"duration_s": 0,
"price_usd": 0,
"resolution": "HD",
"published_at": "2025-06-16T06:08:59.477465Z"
},
{
"yt_id": "t1Js8Aq4XeA",
"youtube_id": "t1Js8Aq4XeA",
"title": "ANDURIL'S Killer Drones Will Blow Your Mind",
"description": "Anduril's Killer Drones Will Blow Your Mind",
"tags": [
"war-autonomous",
"anduril",
"autonomous"
],
"category": "war-autonomous",
"source": "youtube",
"status": "published",
"youtube_channel": "MERLIN DEAN",
"lat": 38.3576,
"lon": -75.953,
"shot_lat": 38.3576,
"shot_lon": -75.953,
"thumb_url": "https://i.ytimg.com/vi/t1Js8Aq4XeA/maxresdefault.jpg",
"ai_quality_score": 7,
"duration_s": 0,
"price_usd": 0,
"resolution": "HD",
"published_at": "2025-06-04T01:04:42.477465Z"
},
{
"yt_id": "IqxL3owzDC4",
"youtube_id": "IqxL3owzDC4",
"title": "Defense contractor Anduril unveils new AI-guided drone-hunting jet",
"description": "Anduril Unveils New AI-Guided Drone-Hunting Jet",
"tags": [
"war-counter",
"anduril",
"counter-uav",
"jet"
],
"category": "war-counter",
"source": "youtube",
"status": "published",
"youtube_channel": "Straight Arrow News",
"lat": 38.7869,
"lon": -75.632,
"shot_lat": 38.7869,
"shot_lon": -75.632,
"thumb_url": "https://i.ytimg.com/vi/IqxL3owzDC4/maxresdefault.jpg",
"ai_quality_score": 7,
"duration_s": 0,
"price_usd": 0,
"resolution": "HD",
"published_at": "2026-01-29T03:34:11.477465Z"
},
{
"yt_id": "W34NPbGkLGI",
"youtube_id": "W34NPbGkLGI",
"title": "OFFensive Swarm-Enabled Tactics (OFFSET) Sixth Field Experiment",
"description": "DARPA OFFSET Swarm Sixth Field Experiment",
"tags": [
"war-swarm",
"darpa",
"offset",
"swarm"
],
"category": "war-swarm",
"source": "youtube",
"status": "published",
"youtube_channel": "DARPAtv",
"lat": 37.9715,
"lon": -75.9233,
"shot_lat": 37.9715,
"shot_lon": -75.9233,
"thumb_url": "https://i.ytimg.com/vi/W34NPbGkLGI/maxresdefault.jpg",
"ai_quality_score": 7,
"duration_s": 0,
"price_usd": 0,
"resolution": "HD",
"published_at": "2025-07-05T22:26:09.477465Z"
},
{
"yt_id": "ZT4mHBKro0g",
"youtube_id": "ZT4mHBKro0g",
"title": "Russia Will Never Forget This Ukrainian Drone Attack",
"description": "Russia Will Never Forget This Ukrainian Drone Attack",
"tags": [
"war-ukraine",
"ukraine",
"fpv",
"strike"
],
"category": "war-ukraine",
"source": "youtube",
"status": "published",
"youtube_channel": "Beyond Military",
"lat": 50.3886,
"lon": 29.2916,
"shot_lat": 50.3886,
"shot_lon": 29.2916,
"thumb_url": "https://i.ytimg.com/vi/ZT4mHBKro0g/maxresdefault.jpg",
"ai_quality_score": 7,
"duration_s": 0,
"price_usd": 0,
"resolution": "HD",
"published_at": "2025-09-10T02:17:35.477465Z"
},
{
"yt_id": "qE6e44PtVng",
"youtube_id": "qE6e44PtVng",
"title": "Ukrainian FPV Hit a Russian Soldier with a Direct Strike on a Truck! Then This Happened...",
"description": "Ukrainian FPV Hits Russian Soldier with Direct Strike on Truck",
"tags": [
"war-ukraine",
"ukraine",
"fpv",
"footage"
],
"category": "war-ukraine",
"source": "youtube",
"status": "published",
"youtube_channel": "Cisar",
"lat": 49.4403,
"lon": 30.6878,
"shot_lat": 49.4403,
"shot_lon": 30.6878,
"thumb_url": "https://i.ytimg.com/vi/qE6e44PtVng/maxresdefault.jpg",
"ai_quality_score": 7,
"duration_s": 0,
"price_usd": 0,
"resolution": "HD",
"published_at": "2025-07-17T21:10:16.477465Z"
},
{
"yt_id": "AeO7jJBcxYU",
"youtube_id": "AeO7jJBcxYU",
"title": "Russia Thinks the Tank Is Cover Until Ukraine FPV Drone Hits | Ukraine War",
"description": "Russia Thinks Tank Is Cover Until Ukraine FPV Drone Hits",
"tags": [
"war-ukraine",
"ukraine",
"fpv",
"tank"
],
"category": "war-ukraine",
"source": "youtube",
"status": "published",
"youtube_channel": "Orbital Insight",
"lat": 49.9221,
"lon": 31.7567,
"shot_lat": 49.9221,
"shot_lon": 31.7567,
"thumb_url": "https://i.ytimg.com/vi/AeO7jJBcxYU/maxresdefault.jpg",
"ai_quality_score": 7,
"duration_s": 0,
"price_usd": 0,
"resolution": "HD",
"published_at": "2025-11-23T16:50:10.477465Z"
},
{
"yt_id": "ZuZtQeGHxi8",
"youtube_id": "ZuZtQeGHxi8",
"title": "Ukrainian Dr0n\u0435s Ch\u0430se Russian Tanks. These \u0410tt\u0430\u0441\u043as Were Thwarted by FPV Dr0nes",
"description": "Ukrainian Drones Chase Russian Tanks \u2014 FPV Thwarts Attack",
"tags": [
"war-ukraine",
"ukraine",
"fpv",
"tank"
],
"category": "war-ukraine",
"source": "youtube",
"status": "published",
"youtube_channel": "UNITED24",
"lat": 49.143,
"lon": 31.0316,
"shot_lat": 49.143,
"shot_lon": 31.0316,
"thumb_url": "https://i.ytimg.com/vi/ZuZtQeGHxi8/maxresdefault.jpg",
"ai_quality_score": 7,
"duration_s": 0,
"price_usd": 0,
"resolution": "HD",
"published_at": "2025-05-14T14:06:47.477465Z"
},
{
"yt_id": "NtmBnSXlNFs",
"youtube_id": "NtmBnSXlNFs",
"title": "Russian Troops Exposed by Ukrainian FPV Drone | Ukraine War",
"description": "Russian Troops Exposed by Ukrainian FPV Drone",
"tags": [
"war-ukraine",
"ukraine",
"fpv",
"troops"
],
"category": "war-ukraine",
"source": "youtube",
"status": "published",
"youtube_channel": "Military Tech Warfare",
"lat": 50.5059,
"lon": 31.7405,
"shot_lat": 50.5059,
"shot_lon": 31.7405,
"thumb_url": "https://i.ytimg.com/vi/NtmBnSXlNFs/maxresdefault.jpg",
"ai_quality_score": 7,
"duration_s": 0,
"price_usd": 0,
"resolution": "HD",
"published_at": "2025-12-23T00:57:44.477465Z"
},
{
"yt_id": "ot8nIByqEN4",
"youtube_id": "ot8nIByqEN4",
"title": "Ukraine releases new footage of unique operation in Russia \u2013 From FPV taking off to moment of strike",
"description": "Ukraine Releases FPV Footage \u2014 Takeoff to Strike on Russia",
"tags": [
"war-ukraine",
"ukraine",
"fpv",
"operation"
],
"category": "war-ukraine",
"source": "youtube",
"status": "published",
"youtube_channel": "Kanal13",
"lat": 51.6534,
"lon": 31.0412,
"shot_lat": 51.6534,
"shot_lon": 31.0412,
"thumb_url": "https://i.ytimg.com/vi/ot8nIByqEN4/maxresdefault.jpg",
"ai_quality_score": 7,
"duration_s": 0,
"price_usd": 0,
"resolution": "HD",
"published_at": "2025-06-26T07:20:39.477465Z"
},
{
"yt_id": "_1lB1i9VSAk",
"youtube_id": "_1lB1i9VSAk",
"title": "FPV Drone Crushes Russia\u2019s Final Move as Ukraine Closes In | Ukraine War",
"description": "FPV Drone Crushes Russia's Final Move as Ukraine Closes In",
"tags": [
"war-ukraine",
"ukraine",
"fpv"
],
"category": "war-ukraine",
"source": "youtube",
"status": "published",
"youtube_channel": "Orbital Insight",
"lat": 51.8775,
"lon": 31.3028,
"shot_lat": 51.8775,
"shot_lon": 31.3028,
"thumb_url": "https://i.ytimg.com/vi/_1lB1i9VSAk/maxresdefault.jpg",
"ai_quality_score": 7,
"duration_s": 0,
"price_usd": 0,
"resolution": "HD",
"published_at": "2025-04-25T00:54:52.477465Z"
},
{
"yt_id": "aukyzgAGHM4",
"youtube_id": "aukyzgAGHM4",
"title": "Ukraine releases dramatic FPV footage of drone attack on Russian airbases",
"description": "Ukraine Releases FPV Footage \u2014 Attack on Russian Airbases",
"tags": [
"war-ukraine",
"ukraine",
"fpv",
"airbase"
],
"category": "war-ukraine",
"source": "youtube",
"status": "published",
"youtube_channel": "Guardian News",
"lat": 51.4839,
"lon": 30.9137,
"shot_lat": 51.4839,
"shot_lon": 30.9137,
"thumb_url": "https://i.ytimg.com/vi/aukyzgAGHM4/maxresdefault.jpg",
"ai_quality_score": 7,
"duration_s": 0,
"price_usd": 0,
"resolution": "HD",
"published_at": "2025-06-26T04:56:44.477465Z"
},
{
"yt_id": "MKxn8Y_nlfw",
"youtube_id": "MKxn8Y_nlfw",
"title": "Ukrainian FPV drone strike obliterates Russian T-90 tank in fiery blaze",
"description": "Ukrainian FPV Drone Strike Obliterates Russian T-90 Tank",
"tags": [
"war-ukraine",
"ukraine",
"fpv",
"t-90"
],
"category": "war-ukraine",
"source": "youtube",
"status": "published",
"youtube_channel": "The Sun",
"lat": 49.8591,
"lon": 30.9911,
"shot_lat": 49.8591,
"shot_lon": 30.9911,
"thumb_url": "https://i.ytimg.com/vi/MKxn8Y_nlfw/maxresdefault.jpg",
"ai_quality_score": 7,
"duration_s": 0,
"price_usd": 0,
"resolution": "HD",
"published_at": "2025-11-03T20:27:00.477465Z"
},
{
"yt_id": "B5uza1iz0ao",
"youtube_id": "B5uza1iz0ao",
"title": "US Air Force Testing New High Powered Laser Gun to Destroy Dangerous Drones",
"description": "US Air Force Tests New High-Powered Laser Gun vs Drones",
"tags": [
"war-counter",
"us",
"laser",
"counter-uav"
],
"category": "war-counter",
"source": "youtube",
"status": "published",
"youtube_channel": "Fluctus",
"lat": 39.2003,
"lon": -77.2553,
"shot_lat": 39.2003,
"shot_lon": -77.2553,
"thumb_url": "https://i.ytimg.com/vi/B5uza1iz0ao/maxresdefault.jpg",
"ai_quality_score": 7,
"duration_s": 0,
"price_usd": 0,
"resolution": "HD",
"published_at": "2026-03-21T17:44:33.477465Z"
},
{
"yt_id": "3uaKZbMjXek",
"youtube_id": "3uaKZbMjXek",
"title": "VAMPIRE: This $30k rocket-launching drone killer is evolving",
"description": "VAMPIRE \u2014 $30K Rocket-Launching Drone Killer Evolves",
"tags": [
"war-counter",
"vampire",
"rocket",
"counter-uav"
],
"category": "war-counter",
"source": "youtube",
"status": "published",
"youtube_channel": "Task & Purpose",
"lat": 38.2676,
"lon": -77.036,
"shot_lat": 38.2676,
"shot_lon": -77.036,
"thumb_url": "https://i.ytimg.com/vi/3uaKZbMjXek/maxresdefault.jpg",
"ai_quality_score": 7,
"duration_s": 0,
"price_usd": 0,
"resolution": "HD",
"published_at": "2025-09-17T04:03:02.477465Z"
},
{
"yt_id": "ackgUZxIIz0",
"youtube_id": "ackgUZxIIz0",
"title": "SYDERAL high-power laser for anti-drone warfare",
"description": "SYDERAL High-Power Laser for Anti-Drone Warfare",
"tags": [
"war-counter",
"syderal",
"laser",
"france"
],
"category": "war-counter",
"source": "youtube",
"status": "published",
"youtube_channel": "Naval News",
"lat": 39.6596,
"lon": -76.8542,
"shot_lat": 39.6596,
"shot_lon": -76.8542,
"thumb_url": "https://i.ytimg.com/vi/ackgUZxIIz0/maxresdefault.jpg",
"ai_quality_score": 7,
"duration_s": 0,
"price_usd": 0,
"resolution": "HD",
"published_at": "2025-10-26T23:25:42.477465Z"
},
{
"yt_id": "9j-E2bCOrg8",
"youtube_id": "9j-E2bCOrg8",
"title": "Raytheon Technologies' High-Energy Laser Weapon System Counters UAS Threats",
"description": "Raytheon High-Energy Laser Weapon Counters UAS Threats",
"tags": [
"war-counter",
"raytheon",
"laser",
"us"
],
"category": "war-counter",
"source": "youtube",
"status": "published",
"youtube_channel": "RTX",
"lat": 39.5531,
"lon": -77.8418,
"shot_lat": 39.5531,
"shot_lon": -77.8418,
"thumb_url": "https://i.ytimg.com/vi/9j-E2bCOrg8/maxresdefault.jpg",
"ai_quality_score": 7,
"duration_s": 0,
"price_usd": 0,
"resolution": "HD",
"published_at": "2025-04-25T04:24:57.477465Z"
},
{
"yt_id": "GyBzOjG6zeY",
"youtube_id": "GyBzOjG6zeY",
"title": "Ukraine reveals laser weapon that destroys drones, missiles and aircraft",
"description": "Ukraine Reveals Laser Weapon That Destroys Drones + Missiles",
"tags": [
"war-counter",
"ukraine",
"tryzub",
"laser"
],
"category": "war-counter",
"source": "youtube",
"status": "published",
"youtube_channel": "Straight Arrow News",
"lat": 37.4372,
"lon": -76.04,
"shot_lat": 37.4372,
"shot_lon": -76.04,
"thumb_url": "https://i.ytimg.com/vi/GyBzOjG6zeY/maxresdefault.jpg",
"ai_quality_score": 7,
"duration_s": 0,
"price_usd": 0,
"resolution": "HD",
"published_at": "2025-11-24T04:49:10.477465Z"
},
{
"yt_id": "NfPcl6nAlM4",
"youtube_id": "NfPcl6nAlM4",
"title": "Can Laser Weapons Stop Drone Attacks?",
"description": "Can Laser Weapons Stop Drone Attacks?",
"tags": [
"war-counter",
"laser",
"analysis"
],
"category": "war-counter",
"source": "youtube",
"status": "published",
"youtube_channel": "Task & Purpose",
"lat": 38.2472,
"lon": -78.3614,
"shot_lat": 38.2472,
"shot_lon": -78.3614,
"thumb_url": "https://i.ytimg.com/vi/NfPcl6nAlM4/maxresdefault.jpg",
"ai_quality_score": 7,
"duration_s": 0,
"price_usd": 0,
"resolution": "HD",
"published_at": "2025-09-05T06:57:30.477465Z"
},
{
"yt_id": "bWThRQKOMVA",
"youtube_id": "bWThRQKOMVA",
"title": "Drone Jamming and Anti-Drone devices in 2024/5",
"description": "Drone Jamming & Anti-Drone Devices in 2024/5",
"tags": [
"war-counter",
"jammer",
"counter-uav"
],
"category": "war-counter",
"source": "youtube",
"status": "published",
"youtube_channel": "Brains933",
"lat": 38.1956,
"lon": -78.3254,
"shot_lat": 38.1956,
"shot_lon": -78.3254,
"thumb_url": "https://i.ytimg.com/vi/bWThRQKOMVA/maxresdefault.jpg",
"ai_quality_score": 7,
"duration_s": 0,
"price_usd": 0,
"resolution": "HD",
"published_at": "2025-07-04T13:13:42.477465Z"
},
{
"yt_id": "DqrIfSMLA4g",
"youtube_id": "DqrIfSMLA4g",
"title": "US Army unveils new laser-armed Stryker vehicle to combat drone warfare",
"description": "US Army Unveils Laser-Armed Stryker vs Drones",
"tags": [
"war-counter",
"us-army",
"stryker",
"laser"
],
"category": "war-counter",
"source": "youtube",
"status": "published",
"youtube_channel": "Straight Arrow News",
"lat": 39.5078,
"lon": -77.7377,
"shot_lat": 39.5078,
"shot_lon": -77.7377,
"thumb_url": "https://i.ytimg.com/vi/DqrIfSMLA4g/maxresdefault.jpg",
"ai_quality_score": 7,
"duration_s": 0,
"price_usd": 0,
"resolution": "HD",
"published_at": "2025-05-11T02:20:48.477465Z"
},
{
"yt_id": "eFiDYFnlp7s",
"youtube_id": "eFiDYFnlp7s",
"title": "This $10M U.S. Army Laser Melts Drones With $3 Beams | WSJ Equipped",
"description": "$10M US Army Laser Melts Drones With $3 Beams \u2014 WSJ",
"tags": [
"war-counter",
"us-army",
"laser",
"wsj"
],
"category": "war-counter",
"source": "youtube",
"status": "published",
"youtube_channel": "The Wall Street Journal",
"lat": 37.7714,
"lon": -78.3842,
"shot_lat": 37.7714,
"shot_lon": -78.3842,
"thumb_url": "https://i.ytimg.com/vi/eFiDYFnlp7s/maxresdefault.jpg",
"ai_quality_score": 7,
"duration_s": 0,
"price_usd": 0,
"resolution": "HD",
"published_at": "2025-10-10T16:43:56.477465Z"
},
{
"yt_id": "Ic_TtnDGPsI",
"youtube_id": "Ic_TtnDGPsI",
"title": "Cartels UNLEASH Drones on El Paso Then This Happened",
"description": "Cartels Unleash Drones on El Paso",
"tags": [
"war-mideast",
"cartel",
"mexico",
"us-border"
],
"category": "war-mideast",
"source": "youtube",
"status": "published",
"youtube_channel": "Max Afterburner",
"lat": 18.8143,
"lon": -98.9199,
"shot_lat": 18.8143,
"shot_lon": -98.9199,
"thumb_url": "https://i.ytimg.com/vi/Ic_TtnDGPsI/maxresdefault.jpg",
"ai_quality_score": 7,
"duration_s": 0,
"price_usd": 0,
"resolution": "HD",
"published_at": "2025-06-02T14:15:11.477465Z"
},
{
"yt_id": "FPqW4G2lYnU",
"youtube_id": "FPqW4G2lYnU",
"title": "Mexico Cartels Target Border Agents with Suicide Drones, Explosives: Reports |Firstpost America|N18G",
"description": "Mexico Cartels Target Border Agents with Suicide Drones",
"tags": [
"war-mideast",
"cartel",
"mexico",
"border"
],
"category": "war-mideast",
"source": "youtube",
"status": "published",
"youtube_channel": "Firstpost",
"lat": 18.8635,
"lon": -100.3389,
"shot_lat": 18.8635,
"shot_lon": -100.3389,
"thumb_url": "https://i.ytimg.com/vi/FPqW4G2lYnU/maxresdefault.jpg",
"ai_quality_score": 7,
"duration_s": 0,
"price_usd": 0,
"resolution": "HD",
"published_at": "2026-02-24T10:52:27.477465Z"
},
{
"yt_id": "asVHbLfZ6aA",
"youtube_id": "asVHbLfZ6aA",
"title": "VIDEO: U.S Attacked By Mexican Cartels' Kamikaze Drones Amid Trump Crackdown On Illegal Mexicans",
"description": "US Attacked by Mexican Cartel Kamikaze Drones",
"tags": [
"war-mideast",
"cartel",
"mexico",
"kamikaze"
],
"category": "war-mideast",
"source": "youtube",
"status": "published",
"youtube_channel": "Oneindia News",
"lat": 18.3097,
"lon": -98.3292,
"shot_lat": 18.3097,
"shot_lon": -98.3292,
"thumb_url": "https://i.ytimg.com/vi/asVHbLfZ6aA/maxresdefault.jpg",
"ai_quality_score": 7,
"duration_s": 0,
"price_usd": 0,
"resolution": "HD",
"published_at": "2025-07-10T11:03:13.477465Z"
},
{
"yt_id": "Z4abjd_4iR8",
"youtube_id": "Z4abjd_4iR8",
"title": "New video: Cartels drop bombs from drones near southern border | The Hill",
"description": "Cartels Drop Bombs from Drones Near Southern Border \u2014 The Hill",
"tags": [
"war-mideast",
"cartel",
"mexico",
"bomb"
],
"category": "war-mideast",
"source": "youtube",
"status": "published",
"youtube_channel": "NewsNation",
"lat": 20.6494,
"lon": -99.2019,
"shot_lat": 20.6494,
"shot_lon": -99.2019,
"thumb_url": "https://i.ytimg.com/vi/Z4abjd_4iR8/maxresdefault.jpg",
"ai_quality_score": 7,
"duration_s": 0,
"price_usd": 0,
"resolution": "HD",
"published_at": "2025-08-05T11:13:14.477465Z"
},
{
"yt_id": "L-Y8ASbWv94",
"youtube_id": "L-Y8ASbWv94",
"title": "Trump administration weighs drone strikes on Mexican cartels",
"description": "Trump Administration Weighs Drone Strikes on Mexican Cartels",
"tags": [
"war-mideast",
"cartel",
"mexico",
"us"
],
"category": "war-mideast",
"source": "youtube",
"status": "published",
"youtube_channel": "NBC News",
"lat": 18.7543,
"lon": -98.0772,
"shot_lat": 18.7543,
"shot_lon": -98.0772,
"thumb_url": "https://i.ytimg.com/vi/L-Y8ASbWv94/maxresdefault.jpg",
"ai_quality_score": 7,
"duration_s": 0,
"price_usd": 0,
"resolution": "HD",
"published_at": "2026-03-29T23:58:31.477465Z"
},
{
"yt_id": "4jyh6kjLe4Q",
"youtube_id": "4jyh6kjLe4Q",
"title": "Drone attack hits Baja California Attorney General's office",
"description": "Drone Attack Hits Baja California Attorney General's Office",
"tags": [
"war-mideast",
"cartel",
"mexico",
"baja"
],
"category": "war-mideast",
"source": "youtube",
"status": "published",
"youtube_channel": "CBS 8 San Diego",
"lat": 20.3059,
"lon": -98.5764,
"shot_lat": 20.3059,
"shot_lon": -98.5764,
"thumb_url": "https://i.ytimg.com/vi/4jyh6kjLe4Q/maxresdefault.jpg",
"ai_quality_score": 7,
"duration_s": 0,
"price_usd": 0,
"resolution": "HD",
"published_at": "2025-09-29T07:25:39.477465Z"
},
{
"yt_id": "cHWCjDK-2Go",
"youtube_id": "cHWCjDK-2Go",
"title": "Cartel operated drones dropped 33 bombs in rural Mexico | NewsNation Prime",
"description": "Cartel Drones Dropped 33 Bombs in Rural Mexico \u2014 NewsNation",
"tags": [
"war-mideast",
"cartel",
"mexico",
"bomb"
],
"category": "war-mideast",
"source": "youtube",
"status": "published",
"youtube_channel": "NewsNation",
"lat": 17.9389,
"lon": -98.9643,
"shot_lat": 17.9389,
"shot_lon": -98.9643,
"thumb_url": "https://i.ytimg.com/vi/cHWCjDK-2Go/maxresdefault.jpg",
"ai_quality_score": 7,
"duration_s": 0,
"price_usd": 0,
"resolution": "HD",
"published_at": "2025-08-20T10:10:29.477465Z"
},
{
"yt_id": "b-QgJgUwnOo",
"youtube_id": "b-QgJgUwnOo",
"title": "Inside the cartel drone threat that closed a major Texas airport",
"description": "Inside Cartel Drone Threat That Closed Texas Airport",
"tags": [
"war-mideast",
"cartel",
"texas",
"airport"
],
"category": "war-mideast",
"source": "youtube",
"status": "published",
"youtube_channel": "Scripps News",
"lat": 20.7244,
"lon": -98.8344,
"shot_lat": 20.7244,
"shot_lon": -98.8344,
"thumb_url": "https://i.ytimg.com/vi/b-QgJgUwnOo/maxresdefault.jpg",
"ai_quality_score": 7,
"duration_s": 0,
"price_usd": 0,
"resolution": "HD",
"published_at": "2025-12-02T16:22:24.477465Z"
},
{
"yt_id": "H9yb6frGjCo",
"youtube_id": "H9yb6frGjCo",
"title": "How Phoenix Ghost Kamikaze Drones Revolutionize Airburst Warfare",
"description": "How Phoenix Ghost Kamikaze Drones Revolutionize Airburst Warfare",
"tags": [
"war-platform",
"phoenix-ghost",
"kamikaze"
],
"category": "war-platform",
"source": "youtube",
"status": "published",
"youtube_channel": "Defense News",
"lat": 40.4197,
"lon": 34.0408,
"shot_lat": 40.4197,
"shot_lon": 34.0408,
"thumb_url": "https://i.ytimg.com/vi/H9yb6frGjCo/maxresdefault.jpg",
"ai_quality_score": 7,
"duration_s": 0,
"price_usd": 0,
"resolution": "HD",
"published_at": "2025-05-26T16:33:49.477465Z"
},
{
"yt_id": "WOX1PRsYTjw",
"youtube_id": "WOX1PRsYTjw",
"title": "Hava Savunma Sistemi Avc\u0131s\u0131: HARPY ve HAROP",
"description": "Harpy ve Harop \u2014 Hava Savunma Avc\u0131s\u0131",
"tags": [
"war-platform",
"harpy",
"harop",
"iai"
],
"category": "war-platform",
"source": "youtube",
"status": "published",
"youtube_channel": "tolgaozbekcom",
"lat": 40.9288,
"lon": 33.3028,
"shot_lat": 40.9288,
"shot_lon": 33.3028,
"thumb_url": "https://i.ytimg.com/vi/WOX1PRsYTjw/maxresdefault.jpg",
"ai_quality_score": 7,
"duration_s": 0,
"price_usd": 0,
"resolution": "HD",
"published_at": "2025-05-20T05:52:12.477465Z"
},
{
"yt_id": "A86OrG8nlB8",
"youtube_id": "A86OrG8nlB8",
"title": "US Fast-Tracks Phoenix Ghost Drones For Ukraine To Fight Putin's Forces I Ukraine Russia War",
"description": "US Fast-Tracks Phoenix Ghost Drones for Ukraine",
"tags": [
"war-ukraine",
"phoenix-ghost",
"ukraine"
],
"category": "war-ukraine",
"source": "youtube",
"status": "published",
"youtube_channel": "CRUX",
"lat": 50.8638,
"lon": 31.2827,
"shot_lat": 50.8638,
"shot_lon": 31.2827,
"thumb_url": "https://i.ytimg.com/vi/A86OrG8nlB8/maxresdefault.jpg",
"ai_quality_score": 7,
"duration_s": 0,
"price_usd": 0,
"resolution": "HD",
"published_at": "2025-08-31T22:37:51.477465Z"
},
{
"yt_id": "YwWuBDx9MvU",
"youtube_id": "YwWuBDx9MvU",
"title": "Indian Air Force Killer Drone HAROP | India-Israel HAROP Suicide Drone - IAF To Buy 15 HAROP Drones",
"description": "Indian Air Force HAROP \u2014 India-Israel Suicide Drone",
"tags": [
"war-platform",
"harop",
"india",
"israel"
],
"category": "war-platform",
"source": "youtube",
"status": "published",
"youtube_channel": "Defence Squad",
"lat": 30.0992,
"lon": 77.302,
"shot_lat": 30.0992,
"shot_lon": 77.302,
"thumb_url": "https://i.ytimg.com/vi/YwWuBDx9MvU/maxresdefault.jpg",
"ai_quality_score": 7,
"duration_s": 0,
"price_usd": 0,
"resolution": "HD",
"published_at": "2025-12-07T22:11:39.477465Z"
},
{
"yt_id": "0WJRxlEuk0c",
"youtube_id": "0WJRxlEuk0c",
"title": "Meet Phoenix Ghost Suicide Drone",
"description": "Meet Phoenix Ghost Suicide Drone",
"tags": [
"war-platform",
"phoenix-ghost"
],
"category": "war-platform",
"source": "youtube",
"status": "published",
"youtube_channel": "World In Focus",
"lat": 40.6537,
"lon": 34.1881,
"shot_lat": 40.6537,
"shot_lon": 34.1881,
"thumb_url": "https://i.ytimg.com/vi/0WJRxlEuk0c/maxresdefault.jpg",
"ai_quality_score": 7,
"duration_s": 0,
"price_usd": 0,
"resolution": "HD",
"published_at": "2025-04-27T07:07:29.477465Z"
},
{
"yt_id": "EUtggLwH2KY",
"youtube_id": "EUtggLwH2KY",
"title": "Harop Suicide Drone: Loitering Munition | Defence Dynamics",
"description": "Harop Suicide Drone \u2014 Loitering Munition Defence Dynamics",
"tags": [
"war-platform",
"harop",
"explainer"
],
"category": "war-platform",
"source": "youtube",
"status": "published",
"youtube_channel": "DD India",
"lat": 40.4098,
"lon": 31.8715,
"shot_lat": 40.4098,
"shot_lon": 31.8715,
"thumb_url": "https://i.ytimg.com/vi/EUtggLwH2KY/maxresdefault.jpg",
"ai_quality_score": 7,
"duration_s": 0,
"price_usd": 0,
"resolution": "HD",
"published_at": "2025-11-25T18:14:22.477465Z"
},
{
"yt_id": "eor83Hi6YzU",
"youtube_id": "eor83Hi6YzU",
"title": "US-Made Phoenix Ghost Kamikaze Drone Blows Up Russian Trench Troops",
"description": "US-Made Phoenix Ghost Blows Up Russian Trench Troops",
"tags": [
"war-ukraine",
"phoenix-ghost",
"footage"
],
"category": "war-ukraine",
"source": "youtube",
"status": "published",
"youtube_channel": "Zenger",
"lat": 49.1148,
"lon": 31.7252,
"shot_lat": 49.1148,
"shot_lon": 31.7252,
"thumb_url": "https://i.ytimg.com/vi/eor83Hi6YzU/maxresdefault.jpg",
"ai_quality_score": 7,
"duration_s": 0,
"price_usd": 0,
"resolution": "HD",
"published_at": "2025-09-25T23:01:41.477465Z"
},
{
"yt_id": "1HUEERZU9oI",
"youtube_id": "1HUEERZU9oI",
"title": "Loitering Munition 9-Hour Endurance Strike  with Precision Targeting | HAROP - IAI",
"description": "9-Hour Endurance Strike with Precision Targeting \u2014 HAROP IAI",
"tags": [
"war-platform",
"harop",
"precision"
],
"category": "war-platform",
"source": "youtube",
"status": "published",
"youtube_channel": "IAI",
"lat": 38.8423,
"lon": 33.8491,
"shot_lat": 38.8423,
"shot_lon": 33.8491,
"thumb_url": "https://i.ytimg.com/vi/1HUEERZU9oI/maxresdefault.jpg",
"ai_quality_score": 7,
"duration_s": 0,
"price_usd": 0,
"resolution": "HD",
"published_at": "2025-06-24T10:48:07.477465Z"
},
{
"yt_id": "cBmhJ-jrzrc",
"youtube_id": "cBmhJ-jrzrc",
"title": "Mini HARPY: Multi-Purpose Tactical Loitering Munition",
"description": "Mini HARPY \u2014 Multi-Purpose Tactical Loitering Munition",
"tags": [
"war-platform",
"harpy",
"tactical"
],
"category": "war-platform",
"source": "youtube",
"status": "published",
"youtube_channel": "IAI",
"lat": 40.3324,
"lon": 31.4908,
"shot_lat": 40.3324,
"shot_lon": 31.4908,
"thumb_url": "https://i.ytimg.com/vi/cBmhJ-jrzrc/maxresdefault.jpg",
"ai_quality_score": 7,
"duration_s": 0,
"price_usd": 0,
"resolution": "HD",
"published_at": "2025-05-13T07:18:40.477465Z"
},
{
"yt_id": "B7hPHBn35gM",
"youtube_id": "B7hPHBn35gM",
"title": "What is the SECRET Phoenix Ghost drone what it looks like, capabilities, and specs Ukraine war 2022",
"description": "What Is Secret Phoenix Ghost Drone \u2014 Specs for Ukraine 2022",
"tags": [
"war-platform",
"phoenix-ghost",
"specs"
],
"category": "war-platform",
"source": "youtube",
"status": "published",
"youtube_channel": "Doctor Nachoz World",
"lat": 40.6153,
"lon": 33.8392,
"shot_lat": 40.6153,
"shot_lon": 33.8392,
"thumb_url": "https://i.ytimg.com/vi/B7hPHBn35gM/maxresdefault.jpg",
"ai_quality_score": 7,
"duration_s": 0,
"price_usd": 0,
"resolution": "HD",
"published_at": "2025-09-11T14:36:17.477465Z"
},
{
"yt_id": "NkgDzhWvIEA",
"youtube_id": "NkgDzhWvIEA",
"title": "Tensions rise on Korean peninsula: North Korea angry over drone incursions",
"description": "Tensions on Korean Peninsula \u2014 NK Angry Over Drone Incursions",
"tags": [
"war-mideast",
"korea",
"north-korea",
"dmz"
],
"category": "war-mideast",
"source": "youtube",
"status": "published",
"youtube_channel": "Al Jazeera English",
"lat": 36.9659,
"lon": 126.5574,
"shot_lat": 36.9659,
"shot_lon": 126.5574,
"thumb_url": "https://i.ytimg.com/vi/NkgDzhWvIEA/maxresdefault.jpg",
"ai_quality_score": 7,
"duration_s": 0,
"price_usd": 0,
"resolution": "HD",
"published_at": "2025-12-25T14:20:52.477465Z"
},
{
"yt_id": "LosCvRqCy8I",
"youtube_id": "LosCvRqCy8I",
"title": "North Korea Threatens Military Action Over Alleged South Korean Drone Incursion | WION",
"description": "NK Threatens Military Action Over Alleged SK Drone Incursion \u2014 WION",
"tags": [
"war-mideast",
"korea",
"wion"
],
"category": "war-mideast",
"source": "youtube",
"status": "published",
"youtube_channel": "WION",
"lat": 37.7666,
"lon": 127.5792,
"shot_lat": 37.7666,
"shot_lon": 127.5792,
"thumb_url": "https://i.ytimg.com/vi/LosCvRqCy8I/maxresdefault.jpg",
"ai_quality_score": 7,
"duration_s": 0,
"price_usd": 0,
"resolution": "HD",
"published_at": "2025-11-17T03:09:43.477465Z"
},
{
"yt_id": "yEr-gTVTTAo",
"youtube_id": "yEr-gTVTTAo",
"title": "South Korea/North Korea Drone Vs. Drone",
"description": "South Korea vs North Korea \u2014 Drone vs Drone",
"tags": [
"war-mideast",
"korea",
"drone-on-drone"
],
"category": "war-mideast",
"source": "youtube",
"status": "published",
"youtube_channel": "America Abroad Media",
"lat": 38.5904,
"lon": 126.5031,
"shot_lat": 38.5904,
"shot_lon": 126.5031,
"thumb_url": "https://i.ytimg.com/vi/yEr-gTVTTAo/maxresdefault.jpg",
"ai_quality_score": 7,
"duration_s": 0,
"price_usd": 0,
"resolution": "HD",
"published_at": "2025-12-30T14:17:17.477465Z"
},
{
"yt_id": "cVxeUM2-Z5E",
"youtube_id": "cVxeUM2-Z5E",
"title": "North Korea vs South Korea WAR? Spy Drone SHOT Down Again, Kim Warns of Full-Blown Assault",
"description": "NK vs SK War? Spy Drone Shot Down Again \u2014 Kim Warns",
"tags": [
"war-mideast",
"korea",
"spy-drone"
],
"category": "war-mideast",
"source": "youtube",
"status": "published",
"youtube_channel": "Oneindia News",
"lat": 38.9957,
"lon": 128.0376,
"shot_lat": 38.9957,
"shot_lon": 128.0376,
"thumb_url": "https://i.ytimg.com/vi/cVxeUM2-Z5E/maxresdefault.jpg",
"ai_quality_score": 7,
"duration_s": 0,
"price_usd": 0,
"resolution": "HD",
"published_at": "2025-05-18T20:41:26.477465Z"
},
{
"yt_id": "nVYli6W5YIQ",
"youtube_id": "nVYli6W5YIQ",
"title": "North Korea claims Seoul is sending drones",
"description": "North Korea Claims Seoul Is Sending Drones",
"tags": [
"war-mideast",
"korea",
"pyongyang"
],
"category": "war-mideast",
"source": "youtube",
"status": "published",
"youtube_channel": "The National Desk",
"lat": 36.7589,
"lon": 126.9696,
"shot_lat": 36.7589,
"shot_lon": 126.9696,
"thumb_url": "https://i.ytimg.com/vi/nVYli6W5YIQ/maxresdefault.jpg",
"ai_quality_score": 7,
"duration_s": 0,
"price_usd": 0,
"resolution": "HD",
"published_at": "2026-02-19T00:32:22.477465Z"
},
{
"yt_id": "WprCMwnJcHg",
"youtube_id": "WprCMwnJcHg",
"title": "North Korea Accuses South Of Another Drone incursion | WION News",
"description": "NK Accuses South of Another Drone Incursion \u2014 WION",
"tags": [
"war-mideast",
"korea",
"incursion"
],
"category": "war-mideast",
"source": "youtube",
"status": "published",
"youtube_channel": "WION",
"lat": 37.9208,
"lon": 128.2092,
"shot_lat": 37.9208,
"shot_lon": 128.2092,
"thumb_url": "https://i.ytimg.com/vi/WprCMwnJcHg/maxresdefault.jpg",
"ai_quality_score": 7,
"duration_s": 0,
"price_usd": 0,
"resolution": "HD",
"published_at": "2025-10-04T12:21:09.477465Z"
},
{
"yt_id": "1WoEpbTzRng",
"youtube_id": "1WoEpbTzRng",
"title": "North Korea says South Korea sent drones to Pyongyang | DW News",
"description": "NK Says South Korea Sent Drones to Pyongyang \u2014 DW",
"tags": [
"war-mideast",
"korea",
"dw"
],
"category": "war-mideast",
"source": "youtube",
"status": "published",
"youtube_channel": "DW News",
"lat": 38.3288,
"lon": 125.6259,
"shot_lat": 38.3288,
"shot_lon": 125.6259,
"thumb_url": "https://i.ytimg.com/vi/1WoEpbTzRng/maxresdefault.jpg",
"ai_quality_score": 7,
"duration_s": 0,
"price_usd": 0,
"resolution": "HD",
"published_at": "2025-05-31T19:25:09.477465Z"
},
{
"yt_id": "qlb776kw3xA",
"youtube_id": "qlb776kw3xA",
"title": "US Ally South Korea Scrambles To Distance From Drone Claims As Kim Prepares 'Unanswered' Revenge",
"description": "US Ally South Korea Scrambles to Distance from Drone Claims",
"tags": [
"war-mideast",
"korea",
"us-ally"
],
"category": "war-mideast",
"source": "youtube",
"status": "published",
"youtube_channel": "Hindustan Times",
"lat": 38.7062,
"lon": 127.0668,
"shot_lat": 38.7062,
"shot_lon": 127.0668,
"thumb_url": "https://i.ytimg.com/vi/qlb776kw3xA/maxresdefault.jpg",
"ai_quality_score": 7,
"duration_s": 0,
"price_usd": 0,
"resolution": "HD",
"published_at": "2025-10-20T16:57:31.477465Z"
},
{
"yt_id": "zlZfrYEY-f0",
"youtube_id": "zlZfrYEY-f0",
"title": "India Army 'BURNS' Pakistani Drone; First OFFICIAL Video Of Attack On Military Post Out",
"description": "India Army Burns Pakistani Drone \u2014 First Official Video",
"tags": [
"war-mideast",
"india",
"pakistan",
"kashmir"
],
"category": "war-mideast",
"source": "youtube",
"status": "published",
"youtube_channel": "Times Of India",
"lat": 27.2879,
"lon": 75.8455,
"shot_lat": 27.2879,
"shot_lon": 75.8455,
"thumb_url": "https://i.ytimg.com/vi/zlZfrYEY-f0/maxresdefault.jpg",
"ai_quality_score": 7,
"duration_s": 0,
"price_usd": 0,
"resolution": "HD",
"published_at": "2025-10-29T22:54:30.477465Z"
},
{
"yt_id": "TsgGFoRhgkM",
"youtube_id": "TsgGFoRhgkM",
"title": "LIVE: Pakistan Fired Up to 400 Drones at India, Used Civilian Airspace as Shield | Operation Sindoor",
"description": "Pakistan Fires 400 Drones at India \u2014 Operation Sindoor",
"tags": [
"war-mideast",
"india",
"pakistan",
"sindoor"
],
"category": "war-mideast",
"source": "youtube",
"status": "published",
"youtube_channel": "Firstpost",
"lat": 29.33,
"lon": 78.2107,
"shot_lat": 29.33,
"shot_lon": 78.2107,
"thumb_url": "https://i.ytimg.com/vi/TsgGFoRhgkM/maxresdefault.jpg",
"ai_quality_score": 7,
"duration_s": 0,
"price_usd": 0,
"resolution": "HD",
"published_at": "2025-05-11T00:07:43.477465Z"
},
{
"yt_id": "mWMdNV6yii4",
"youtube_id": "mWMdNV6yii4",
"title": "India SHOOTS Down Pakistan\u2019s Drone, Massive Explosion Erupts In Uri\u00a0|\u00a0WATCH\u00a0VIDEO",
"description": "India Shoots Down Pakistan Drone \u2014 Massive Explosion in Uri",
"tags": [
"war-mideast",
"india",
"pakistan",
"uri"
],
"category": "war-mideast",
"source": "youtube",
"status": "published",
"youtube_channel": "Times Of India",
"lat": 28.8686,
"lon": 77.761,
"shot_lat": 28.8686,
"shot_lon": 77.761,
"thumb_url": "https://i.ytimg.com/vi/mWMdNV6yii4/maxresdefault.jpg",
"ai_quality_score": 7,
"duration_s": 0,
"price_usd": 0,
"resolution": "HD",
"published_at": "2025-08-11T20:26:41.477465Z"
},
{
"yt_id": "dRmJfbsghjQ",
"youtube_id": "dRmJfbsghjQ",
"title": "Why Pakistani Attack with Turkish Drones Failed to Hit India?",
"description": "Why Pakistani Turkish Drone Attack Failed to Hit India",
"tags": [
"war-mideast",
"india",
"pakistan",
"bayraktar"
],
"category": "war-mideast",
"source": "youtube",
"status": "published",
"youtube_channel": "Republic World",
"lat": 27.4199,
"lon": 78.3568,
"shot_lat": 27.4199,
"shot_lon": 78.3568,
"thumb_url": "https://i.ytimg.com/vi/dRmJfbsghjQ/maxresdefault.jpg",
"ai_quality_score": 7,
"duration_s": 0,
"price_usd": 0,
"resolution": "HD",
"published_at": "2025-09-10T06:27:10.477465Z"
},
{
"yt_id": "W1aZD4QgHZw",
"youtube_id": "W1aZD4QgHZw",
"title": "Operation Sindoor LIVE: How India's Air Defence System Shot Down 400 Pakistani Drones | Palki Sharma",
"description": "Operation Sindoor \u2014 How India Shot Down 400 Pakistani Drones",
"tags": [
"war-mideast",
"india",
"pakistan",
"sindoor"
],
"category": "war-mideast",
"source": "youtube",
"status": "published",
"youtube_channel": "Firstpost",
"lat": 29.8022,
"lon": 76.4353,
"shot_lat": 29.8022,
"shot_lon": 76.4353,
"thumb_url": "https://i.ytimg.com/vi/W1aZD4QgHZw/maxresdefault.jpg",
"ai_quality_score": 7,
"duration_s": 0,
"price_usd": 0,
"resolution": "HD",
"published_at": "2026-03-28T09:14:49.477465Z"
},
{
"yt_id": "TPttG_IGtqE",
"youtube_id": "TPttG_IGtqE",
"title": "India Shoots Down Missiles and Drones From Pakistan | Vantage with Palki Sharma | N18G",
"description": "India Shoots Down Missiles & Drones from Pakistan \u2014 Vantage",
"tags": [
"war-mideast",
"india",
"pakistan"
],
"category": "war-mideast",
"source": "youtube",
"status": "published",
"youtube_channel": "Firstpost",
"lat": 27.2948,
"lon": 77.9344,
"shot_lat": 27.2948,
"shot_lon": 77.9344,
"thumb_url": "https://i.ytimg.com/vi/TPttG_IGtqE/maxresdefault.jpg",
"ai_quality_score": 7,
"duration_s": 0,
"price_usd": 0,
"resolution": "HD",
"published_at": "2026-03-06T06:34:07.477465Z"
},
{
"yt_id": "fUinLdM4OH8",
"youtube_id": "fUinLdM4OH8",
"title": "How India Shot Down 400 Drones Launched by Pakistan | Vantage with Palki Sharma | N18G",
"description": "How India Shot Down 400 Drones Launched by Pakistan \u2014 Vantage",
"tags": [
"war-mideast",
"india",
"pakistan",
"defense"
],
"category": "war-mideast",
"source": "youtube",
"status": "published",
"youtube_channel": "Firstpost",
"lat": 29.1941,
"lon": 78.4324,
"shot_lat": 29.1941,
"shot_lon": 78.4324,
"thumb_url": "https://i.ytimg.com/vi/fUinLdM4OH8/maxresdefault.jpg",
"ai_quality_score": 7,
"duration_s": 0,
"price_usd": 0,
"resolution": "HD",
"published_at": "2026-01-19T08:48:36.477465Z"
},
{
"yt_id": "gxSmYo1X87E",
"youtube_id": "gxSmYo1X87E",
"title": "Full Video: India Reveals Pakistan Used Turkish Drones In May 8 Attack | Col Qureshi, Vyomika Singh",
"description": "India Reveals Pakistan Used Turkish Drones in May 8 Attack",
"tags": [
"war-mideast",
"india",
"pakistan",
"turkey"
],
"category": "war-mideast",
"source": "youtube",
"status": "published",
"youtube_channel": "Hindustan Times",
"lat": 29.9531,
"lon": 75.7708,
"shot_lat": 29.9531,
"shot_lon": 75.7708,
"thumb_url": "https://i.ytimg.com/vi/gxSmYo1X87E/maxresdefault.jpg",
"ai_quality_score": 7,
"duration_s": 0,
"price_usd": 0,
"resolution": "HD",
"published_at": "2026-01-19T06:19:46.477465Z"
},
{
"yt_id": "5aNtppqYYKs",
"youtube_id": "5aNtppqYYKs",
"title": "Ukraine DOMINATES Black Sea with next-gen Sea Baby drones and Putin's Navy can\u2019t compete",
"description": "Ukraine Dominates Black Sea with Next-Gen Sea Baby Drones",
"tags": [
"war-ukraine",
"sea-drone",
"black-sea",
"sea-baby"
],
"category": "war-ukraine",
"source": "youtube",
"status": "published",
"youtube_channel": "The Sun",
"lat": 45.7636,
"lon": 33.4067,
"shot_lat": 45.7636,
"shot_lon": 33.4067,
"thumb_url": "https://i.ytimg.com/vi/5aNtppqYYKs/maxresdefault.jpg",
"ai_quality_score": 7,
"duration_s": 0,
"price_usd": 0,
"resolution": "HD",
"published_at": "2025-07-25T07:50:38.477465Z"
},
{
"yt_id": "zJBbIVhQUC0",
"youtube_id": "zJBbIVhQUC0",
"title": "Why Ukraine\u2019s New CARRIER DRONES Mean the END of Russia's Black Sea Navy",
"description": "Ukraine Carrier Drones Mean End of Russia's Black Sea Navy",
"tags": [
"war-ukraine",
"sea-drone",
"black-sea"
],
"category": "war-ukraine",
"source": "youtube",
"status": "published",
"youtube_channel": "The Military Show",
"lat": 45.0304,
"lon": 32.8124,
"shot_lat": 45.0304,
"shot_lon": 32.8124,
"thumb_url": "https://i.ytimg.com/vi/zJBbIVhQUC0/maxresdefault.jpg",
"ai_quality_score": 7,
"duration_s": 0,
"price_usd": 0,
"resolution": "HD",
"published_at": "2025-08-02T16:11:22.477465Z"
},
{
"yt_id": "qFXH0mKbBqY",
"youtube_id": "qFXH0mKbBqY",
"title": "How accelerated uncrewed surface vessel innovation is reshaping naval combat",
"description": "Accelerated USV Innovation Reshaping Naval Combat",
"tags": [
"war-autonomous",
"usv",
"naval",
"analysis"
],
"category": "war-autonomous",
"source": "youtube",
"status": "published",
"youtube_channel": "BFBS Forces News",
"lat": 38.4593,
"lon": -78.2942,
"shot_lat": 38.4593,
"shot_lon": -78.2942,
"thumb_url": "https://i.ytimg.com/vi/qFXH0mKbBqY/maxresdefault.jpg",
"ai_quality_score": 7,
"duration_s": 0,
"price_usd": 0,
"resolution": "HD",
"published_at": "2025-10-28T02:19:03.477465Z"
},
{
"yt_id": "Iv1WbNY-yB0",
"youtube_id": "Iv1WbNY-yB0",
"title": "'Faster than anything else in the Black Sea': See Ukraine's latest sea drone",
"description": "Faster Than Anything in the Black Sea \u2014 Ukraine Latest Sea Drone",
"tags": [
"war-ukraine",
"sea-drone",
"black-sea"
],
"category": "war-ukraine",
"source": "youtube",
"status": "published",
"youtube_channel": "CNN",
"lat": 45.5674,
"lon": 32.1086,
"shot_lat": 45.5674,
"shot_lon": 32.1086,
"thumb_url": "https://i.ytimg.com/vi/Iv1WbNY-yB0/maxresdefault.jpg",
"ai_quality_score": 7,
"duration_s": 0,
"price_usd": 0,
"resolution": "HD",
"published_at": "2025-10-27T13:14:52.477465Z"
},
{
"yt_id": "9-Zl2_qFjbs",
"youtube_id": "9-Zl2_qFjbs",
"title": "Ukraine's Magura V5 USV - Kamikaze Drone Boat at DSEI 2023",
"description": "Ukraine Magura V5 USV \u2014 Kamikaze Drone Boat at DSEI 2023",
"tags": [
"war-ukraine",
"magura",
"usv",
"kamikaze"
],
"category": "war-ukraine",
"source": "youtube",
"status": "published",
"youtube_channel": "Naval News",
"lat": 51.0963,
"lon": 29.1863,
"shot_lat": 51.0963,
"shot_lon": 29.1863,
"thumb_url": "https://i.ytimg.com/vi/9-Zl2_qFjbs/maxresdefault.jpg",
"ai_quality_score": 7,
"duration_s": 0,
"price_usd": 0,
"resolution": "HD",
"published_at": "2026-02-02T18:24:56.477465Z"
},
{
"yt_id": "EAiYAICMhO0",
"youtube_id": "EAiYAICMhO0",
"title": "Footage purports to show Ukrainian sea drone hit Russian Black Sea ship",
"description": "Ukrainian Sea Drone Hits Russian Black Sea Ship \u2014 Footage",
"tags": [
"war-ukraine",
"sea-drone",
"footage"
],
"category": "war-ukraine",
"source": "youtube",
"status": "published",
"youtube_channel": "Guardian News",
"lat": 50.3406,
"lon": 29.1611,
"shot_lat": 50.3406,
"shot_lon": 29.1611,
"thumb_url": "https://i.ytimg.com/vi/EAiYAICMhO0/maxresdefault.jpg",
"ai_quality_score": 7,
"duration_s": 0,
"price_usd": 0,
"resolution": "HD",
"published_at": "2026-04-23T12:26:55.477465Z"
},
{
"yt_id": "iub0RYWwgBE",
"youtube_id": "iub0RYWwgBE",
"title": "Ukraine\u2019s Magura V7 Drone Boat Uses Russian Missiles to Defend the Black Sea",
"description": "Magura V7 Drone Boat Uses Russian Missiles to Defend Black Sea",
"tags": [
"war-ukraine",
"magura",
"v7",
"black-sea"
],
"category": "war-ukraine",
"source": "youtube",
"status": "published",
"youtube_channel": "TECHNO THUNDER",
"lat": 43.2358,
"lon": 34.1408,
"shot_lat": 43.2358,
"shot_lon": 34.1408,
"thumb_url": "https://i.ytimg.com/vi/iub0RYWwgBE/maxresdefault.jpg",
"ai_quality_score": 7,
"duration_s": 0,
"price_usd": 0,
"resolution": "HD",
"published_at": "2026-01-31T19:11:04.477465Z"
},
{
"yt_id": "_aqrVqxyfIA",
"youtube_id": "_aqrVqxyfIA",
"title": "Black Sea Shock! Russian Lancet-51 Destroys Ukraine\u2019s Starlink USV",
"description": "Russian Lancet-51 Destroys Ukraine's Starlink USV",
"tags": [
"war-russia",
"lancet",
"usv",
"starlink"
],
"category": "war-russia",
"source": "youtube",
"status": "published",
"youtube_channel": "Military TV",
"lat": 56.1656,
"lon": 38.5905,
"shot_lat": 56.1656,
"shot_lon": 38.5905,
"thumb_url": "https://i.ytimg.com/vi/_aqrVqxyfIA/maxresdefault.jpg",
"ai_quality_score": 7,
"duration_s": 0,
"price_usd": 0,
"resolution": "HD",
"published_at": "2025-11-23T10:58:04.477465Z"
},
{
"yt_id": "AyOgr5jix9w",
"youtube_id": "AyOgr5jix9w",
"title": "Russian ship appears to get hit by unmanned surface vessel in drone video",
"description": "Russian Ship Hit by Unmanned Surface Vessel \u2014 Drone Video",
"tags": [
"war-ukraine",
"usv",
"footage"
],
"category": "war-ukraine",
"source": "youtube",
"status": "published",
"youtube_channel": "CNN",
"lat": 50.616,
"lon": 30.8621,
"shot_lat": 50.616,
"shot_lon": 30.8621,
"thumb_url": "https://i.ytimg.com/vi/AyOgr5jix9w/maxresdefault.jpg",
"ai_quality_score": 7,
"duration_s": 0,
"price_usd": 0,
"resolution": "HD",
"published_at": "2026-01-10T02:38:17.477465Z"
},
{
"yt_id": "LoazJkEBxNc",
"youtube_id": "LoazJkEBxNc",
"title": "Ukraine's kamikaze drone Magura V5 in details",
"description": "Ukraine's Kamikaze Drone Magura V5 in Detail",
"tags": [
"war-ukraine",
"magura",
"v5",
"explainer"
],
"category": "war-ukraine",
"source": "youtube",
"status": "published",
"youtube_channel": "Naval News",
"lat": 51.4395,
"lon": 31.811,
"shot_lat": 51.4395,
"shot_lon": 31.811,
"thumb_url": "https://i.ytimg.com/vi/LoazJkEBxNc/maxresdefault.jpg",
"ai_quality_score": 7,
"duration_s": 0,
"price_usd": 0,
"resolution": "HD",
"published_at": "2025-05-10T05:59:12.477465Z"
},
{
"yt_id": "cbT_qHzR4y4",
"youtube_id": "cbT_qHzR4y4",
"title": "No Escape: Ukrainian FPV Drones Crush Russian Forces Without Warning",
"description": "No Escape \u2014 Ukrainian FPV Drones Crush Russian Forces",
"tags": [
"war-ukraine",
"fpv",
"footage",
"crush"
],
"category": "war-ukraine",
"source": "youtube",
"status": "published",
"youtube_channel": "Military Tech Warfare",
"lat": 50.34,
"lon": 29.5427,
"shot_lat": 50.34,
"shot_lon": 29.5427,
"thumb_url": "https://i.ytimg.com/vi/cbT_qHzR4y4/maxresdefault.jpg",
"ai_quality_score": 7,
"duration_s": 0,
"price_usd": 0,
"resolution": "HD",
"published_at": "2025-05-25T05:20:17.477465Z"
},
{
"yt_id": "8s_sy_dPFcI",
"youtube_id": "8s_sy_dPFcI",
"title": "Ukrainian Drones STRIKE Russian Weapon Factory - Then THIS Happened...",
"description": "Ukrainian Drones Strike Russian Weapon Factory",
"tags": [
"war-ukraine",
"strike",
"factory"
],
"category": "war-ukraine",
"source": "youtube",
"status": "published",
"youtube_channel": "Beyond Military",
"lat": 50.1624,
"lon": 29.7653,
"shot_lat": 50.1624,
"shot_lon": 29.7653,
"thumb_url": "https://i.ytimg.com/vi/8s_sy_dPFcI/maxresdefault.jpg",
"ai_quality_score": 7,
"duration_s": 0,
"price_usd": 0,
"resolution": "HD",
"published_at": "2025-11-12T23:30:09.477465Z"
},
{
"yt_id": "HuHBEDj3fJQ",
"youtube_id": "HuHBEDj3fJQ",
"title": "Ukraine update: Drones target Moscow and forces continue attacks in Kursk region | DW News",
"description": "Drones Target Moscow + Kursk Operations \u2014 DW",
"tags": [
"war-ukraine",
"moscow",
"kursk",
"dw"
],
"category": "war-ukraine",
"source": "youtube",
"status": "published",
"youtube_channel": "DW News",
"lat": 50.7594,
"lon": 30.4616,
"shot_lat": 50.7594,
"shot_lon": 30.4616,
"thumb_url": "https://i.ytimg.com/vi/HuHBEDj3fJQ/maxresdefault.jpg",
"ai_quality_score": 7,
"duration_s": 0,
"price_usd": 0,
"resolution": "HD",
"published_at": "2026-01-06T16:36:59.477465Z"
},
{
"yt_id": "HEMxaLXZgwk",
"youtube_id": "HEMxaLXZgwk",
"title": "Everything is GONE\u2026 Ukraine\u2019s 2025 Drone War DEVASTATES Russia",
"description": "Everything Is Gone \u2014 Ukraine's 2025 Drone War Devastates Russia",
"tags": [
"war-ukraine",
"2025",
"analysis"
],
"category": "war-ukraine",
"source": "youtube",
"status": "published",
"youtube_channel": "The Military Show",
"lat": 50.8152,
"lon": 29.861,
"shot_lat": 50.8152,
"shot_lon": 29.861,
"thumb_url": "https://i.ytimg.com/vi/HEMxaLXZgwk/maxresdefault.jpg",
"ai_quality_score": 7,
"duration_s": 0,
"price_usd": 0,
"resolution": "HD",
"published_at": "2025-05-26T13:13:53.477465Z"
},
{
"yt_id": "m8dimlKTQBA",
"youtube_id": "m8dimlKTQBA",
"title": "NAVAL DRONES AND HIMARS STRIKE: SEVASTOPOL, KURSK, SMOLENSK ON FIRE Vlog 910: War in Ukraine",
"description": "Naval Drones + HIMARS Strike \u2014 Sevastopol Kursk Smolensk",
"tags": [
"war-ukraine",
"naval",
"himars",
"kursk"
],
"category": "war-ukraine",
"source": "youtube",
"status": "published",
"youtube_channel": "Anna from Ukraine",
"lat": 50.2134,
"lon": 30.4328,
"shot_lat": 50.2134,
"shot_lon": 30.4328,
"thumb_url": "https://i.ytimg.com/vi/m8dimlKTQBA/maxresdefault.jpg",
"ai_quality_score": 7,
"duration_s": 0,
"price_usd": 0,
"resolution": "HD",
"published_at": "2026-03-02T17:07:19.477465Z"
},
{
"yt_id": "gA1hbVR_gCc",
"youtube_id": "gA1hbVR_gCc",
"title": "Dramatic moment Ukraine's missile-firing sea drone downs Russian helicopter over occupied Crimea",
"description": "Ukraine Missile-Firing Sea Drone Downs Russian Helicopter over Crimea",
"tags": [
"war-ukraine",
"sea-drone",
"helicopter",
"crimea"
],
"category": "war-ukraine",
"source": "youtube",
"status": "published",
"youtube_channel": "The Sun",
"lat": 44.2159,
"lon": 35.0558,
"shot_lat": 44.2159,
"shot_lon": 35.0558,
"thumb_url": "https://i.ytimg.com/vi/gA1hbVR_gCc/maxresdefault.jpg",
"ai_quality_score": 7,
"duration_s": 0,
"price_usd": 0,
"resolution": "HD",
"published_at": "2026-02-16T14:01:44.477465Z"
},
{
"yt_id": "oUsKoGYoF5s",
"youtube_id": "oUsKoGYoF5s",
"title": "Russia Ukraine War LIVE: Ukraine Drone Strikes Spark Fires At Kursk Nuclear Plant in Russia",
"description": "Ukraine Drone Strikes Spark Fires at Kursk Nuclear Plant",
"tags": [
"war-ukraine",
"kursk",
"nuclear"
],
"category": "war-ukraine",
"source": "youtube",
"status": "published",
"youtube_channel": "Firstpost",
"lat": 50.0268,
"lon": 31.9247,
"shot_lat": 50.0268,
"shot_lon": 31.9247,
"thumb_url": "https://i.ytimg.com/vi/oUsKoGYoF5s/maxresdefault.jpg",
"ai_quality_score": 7,
"duration_s": 0,
"price_usd": 0,
"resolution": "HD",
"published_at": "2025-05-08T23:51:01.477465Z"
},
{
"yt_id": "kYY4t1VVY1E",
"youtube_id": "kYY4t1VVY1E",
"title": "How Ukraine Sea Drone Shot Russian Helicopter? #ukraine #russia",
"description": "How Ukraine Sea Drone Shot Russian Helicopter",
"tags": [
"war-ukraine",
"sea-drone",
"helicopter"
],
"category": "war-ukraine",
"source": "youtube",
"status": "published",
"youtube_channel": "AiTelly",
"lat": 51.5661,
"lon": 29.3462,
"shot_lat": 51.5661,
"shot_lon": 29.3462,
"thumb_url": "https://i.ytimg.com/vi/kYY4t1VVY1E/maxresdefault.jpg",
"ai_quality_score": 7,
"duration_s": 0,
"price_usd": 0,
"resolution": "HD",
"published_at": "2026-02-21T15:38:50.477465Z"
},
{
"yt_id": "AILTuw2RLX4",
"youtube_id": "AILTuw2RLX4",
"title": "Fear in Moscow: The success of Ukraine's drones and the Kursk operation",
"description": "Fear in Moscow \u2014 Success of Ukraine Drones + Kursk Operation",
"tags": [
"war-ukraine",
"kursk",
"moscow"
],
"category": "war-ukraine",
"source": "youtube",
"status": "published",
"youtube_channel": "UATV English",
"lat": 50.3229,
"lon": 30.5231,
"shot_lat": 50.3229,
"shot_lon": 30.5231,
"thumb_url": "https://i.ytimg.com/vi/AILTuw2RLX4/maxresdefault.jpg",
"ai_quality_score": 7,
"duration_s": 0,
"price_usd": 0,
"resolution": "HD",
"published_at": "2025-09-14T11:07:54.477465Z"
},
{
"yt_id": "INVrmEkDYDo",
"youtube_id": "INVrmEkDYDo",
"title": "How Many Kalibr and Kh0191 Cruise Missiles Would Russia Need to Win in Ukraine?",
"description": "How Many Kalibr & Kh-101 Cruise Missiles Would Russia Need?",
"tags": [
"war-platform",
"kalibr",
"kh-101",
"russia",
"analysis"
],
"category": "war-platform",
"source": "youtube",
"status": "published",
"youtube_channel": "Covert Cabal",
"lat": 39.2614,
"lon": 33.1831,
"shot_lat": 39.2614,
"shot_lon": 33.1831,
"thumb_url": "https://i.ytimg.com/vi/INVrmEkDYDo/maxresdefault.jpg",
"ai_quality_score": 7,
"duration_s": 0,
"price_usd": 0,
"resolution": "HD",
"published_at": "2025-05-18T01:04:50.477465Z"
},
{
"yt_id": "ZCjwrV28nVQ",
"youtube_id": "ZCjwrV28nVQ",
"title": "Putin unleashes fury with Kalibr cruise missiles on Ukraine: Russian air attacks jolt Kyiv",
"description": "Putin Unleashes Fury with Kalibr Cruise Missiles on Ukraine",
"tags": [
"war-russia",
"kalibr",
"cruise",
"kyiv"
],
"category": "war-russia",
"source": "youtube",
"status": "published",
"youtube_channel": "ANI News",
"lat": 55.6052,
"lon": 37.9638,
"shot_lat": 55.6052,
"shot_lon": 37.9638,
"thumb_url": "https://i.ytimg.com/vi/ZCjwrV28nVQ/maxresdefault.jpg",
"ai_quality_score": 7,
"duration_s": 0,
"price_usd": 0,
"resolution": "HD",
"published_at": "2026-02-13T19:35:52.477465Z"
},
{
"yt_id": "7Qpo9BSR5pY",
"youtube_id": "7Qpo9BSR5pY",
"title": "Putin Commands Russian Assault: Shahed Drones, KAB Bombs, Kalibr Missiles Hit Ukraine | APT",
"description": "Putin Assault \u2014 Shahed + KAB + Kalibr Hit Ukraine",
"tags": [
"war-russia",
"shahed",
"kab",
"kalibr"
],
"category": "war-russia",
"source": "youtube",
"status": "published",
"youtube_channel": "APT",
"lat": 55.7735,
"lon": 36.537,
"shot_lat": 55.7735,
"shot_lon": 36.537,
"thumb_url": "https://i.ytimg.com/vi/7Qpo9BSR5pY/maxresdefault.jpg",
"ai_quality_score": 7,
"duration_s": 0,
"price_usd": 0,
"resolution": "HD",
"published_at": "2025-05-28T19:53:11.477465Z"
},
{
"yt_id": "GYGnONm5_t0",
"youtube_id": "GYGnONm5_t0",
"title": "Are Ukraine's Larger, Slow Drones Outperforming Russia's Faster Missiles? | UJ-22 | Kalibr | Kh-101",
"description": "Ukraine Slow Drones Outperforming Russia Fast Missiles?",
"tags": [
"war-ukraine",
"uj-22",
"analysis"
],
"category": "war-ukraine",
"source": "youtube",
"status": "published",
"youtube_channel": "CRUX",
"lat": 49.9335,
"lon": 31.4516,
"shot_lat": 49.9335,
"shot_lon": 31.4516,
"thumb_url": "https://i.ytimg.com/vi/GYGnONm5_t0/maxresdefault.jpg",
"ai_quality_score": 7,
"duration_s": 0,
"price_usd": 0,
"resolution": "HD",
"published_at": "2025-12-11T08:02:52.477465Z"
},
{
"yt_id": "f7jm7QEDKrA",
"youtube_id": "f7jm7QEDKrA",
"title": "Russian Iskander, KH-22 Missiles Slam Into Ukrainian Cities As Air Defense System Fails | Watch",
"description": "Russian Iskander/Kh-22 Slam into Ukrainian Cities",
"tags": [
"war-russia",
"iskander",
"kh-22"
],
"category": "war-russia",
"source": "youtube",
"status": "published",
"youtube_channel": "Hindustan Times",
"lat": 54.7502,
"lon": 38.5479,
"shot_lat": 54.7502,
"shot_lon": 38.5479,
"thumb_url": "https://i.ytimg.com/vi/f7jm7QEDKrA/maxresdefault.jpg",
"ai_quality_score": 7,
"duration_s": 0,
"price_usd": 0,
"resolution": "HD",
"published_at": "2025-05-14T23:36:42.477465Z"
},
{
"yt_id": "n4YVDyFt14k",
"youtube_id": "n4YVDyFt14k",
"title": "Russia's Cruise Missiles Meet Ukraine's SKYNEX!",
"description": "Russia Cruise Missiles Meet Ukraine's SKYNEX",
"tags": [
"war-counter",
"skynex",
"cruise",
"air-defense"
],
"category": "war-counter",
"source": "youtube",
"status": "published",
"youtube_channel": "Wes O'Donnell",
"lat": 40.0712,
"lon": -78.2918,
"shot_lat": 40.0712,
"shot_lon": -78.2918,
"thumb_url": "https://i.ytimg.com/vi/n4YVDyFt14k/maxresdefault.jpg",
"ai_quality_score": 7,
"duration_s": 0,
"price_usd": 0,
"resolution": "HD",
"published_at": "2025-09-20T04:22:50.477465Z"
},
{
"yt_id": "SbeI8gKCO9o",
"youtube_id": "SbeI8gKCO9o",
"title": "Putin\u2019s Iskander, Kinzhal & Kalibr Missile \u2018HELLFIRE\u2019 Shatters Kyiv; Russia Launches Combined Attack",
"description": "Iskander Kinzhal Kalibr Hellfire Shatters Kyiv",
"tags": [
"war-russia",
"iskander",
"kinzhal",
"combined"
],
"category": "war-russia",
"source": "youtube",
"status": "published",
"youtube_channel": "Times Of India",
"lat": 54.7124,
"lon": 36.1383,
"shot_lat": 54.7124,
"shot_lon": 36.1383,
"thumb_url": "https://i.ytimg.com/vi/SbeI8gKCO9o/maxresdefault.jpg",
"ai_quality_score": 7,
"duration_s": 0,
"price_usd": 0,
"resolution": "HD",
"published_at": "2025-06-30T10:18:48.477465Z"
},
{
"yt_id": "9GwaGst4j9c",
"youtube_id": "9GwaGst4j9c",
"title": "How Russia Strikes Ukraine With Missiles & Drones",
"description": "How Russia Strikes Ukraine with Missiles & Drones",
"tags": [
"war-russia",
"missile",
"drone",
"analysis"
],
"category": "war-russia",
"source": "youtube",
"status": "published",
"youtube_channel": "AiTelly",
"lat": 54.9302,
"lon": 36.7206,
"shot_lat": 54.9302,
"shot_lon": 36.7206,
"thumb_url": "https://i.ytimg.com/vi/9GwaGst4j9c/maxresdefault.jpg",
"ai_quality_score": 7,
"duration_s": 0,
"price_usd": 0,
"resolution": "HD",
"published_at": "2025-10-22T07:46:42.477465Z"
},
{
"yt_id": "TZN3Hx_fx0A",
"youtube_id": "TZN3Hx_fx0A",
"title": "Russia blasts Ukraine for drone attacks on Kalibr cruise missile cargo in Crimea | Watch",
"description": "Russia Blasts Ukraine for Drone Attacks on Kalibr Cargo in Crimea",
"tags": [
"war-ukraine",
"crimea",
"kalibr",
"strike"
],
"category": "war-ukraine",
"source": "youtube",
"status": "published",
"youtube_channel": "Hindustan Times",
"lat": 44.272,
"lon": 33.2909,
"shot_lat": 44.272,
"shot_lon": 33.2909,
"thumb_url": "https://i.ytimg.com/vi/TZN3Hx_fx0A/maxresdefault.jpg",
"ai_quality_score": 7,
"duration_s": 0,
"price_usd": 0,
"resolution": "HD",
"published_at": "2025-10-12T07:11:57.477465Z"
},
{
"yt_id": "4iZNg9G1RHU",
"youtube_id": "4iZNg9G1RHU",
"title": "Russian Kalibr cruise missiles destroy U.S-made HIMARS munitions & Western anti-aircraft systems",
"description": "Russian Kalibr Destroys US HIMARS Munitions + Western AA",
"tags": [
"war-russia",
"kalibr",
"himars"
],
"category": "war-russia",
"source": "youtube",
"status": "published",
"youtube_channel": "Hindustan Times",
"lat": 55.9136,
"lon": 39.0075,
"shot_lat": 55.9136,
"shot_lon": 39.0075,
"thumb_url": "https://i.ytimg.com/vi/4iZNg9G1RHU/maxresdefault.jpg",
"ai_quality_score": 7,
"duration_s": 0,
"price_usd": 0,
"resolution": "HD",
"published_at": "2026-02-16T10:32:04.477465Z"
},
{
"yt_id": "zO2NfAoRLh0",
"youtube_id": "zO2NfAoRLh0",
"title": "Inside a Drone Factory: How Ukraine's Victory Is Built and What It\u2019s Made Of",
"description": "Inside a Drone Factory \u2014 How Ukraine's Victory Is Built",
"tags": [
"war-ukraine",
"factory",
"industry"
],
"category": "war-ukraine",
"source": "youtube",
"status": "published",
"youtube_channel": "Kyiv Post",
"lat": 49.3842,
"lon": 30.872,
"shot_lat": 49.3842,
"shot_lon": 30.872,
"thumb_url": "https://i.ytimg.com/vi/zO2NfAoRLh0/maxresdefault.jpg",
"ai_quality_score": 7,
"duration_s": 0,
"price_usd": 0,
"resolution": "HD",
"published_at": "2026-01-26T02:46:43.477465Z"
},
{
"yt_id": "paW_o0P2rSA",
"youtube_id": "paW_o0P2rSA",
"title": "How a $2K AI\u2011Guided Drone Crippled Russia\u2019s Military Production Factory",
"description": "$2K AI-Guided Drone Cripples Russia's Military Production",
"tags": [
"war-ukraine",
"ai",
"factory",
"strike"
],
"category": "war-ukraine",
"source": "youtube",
"status": "published",
"youtube_channel": "Jason Jay Smart",
"lat": 50.8323,
"lon": 30.38,
"shot_lat": 50.8323,
"shot_lon": 30.38,
"thumb_url": "https://i.ytimg.com/vi/paW_o0P2rSA/maxresdefault.jpg",
"ai_quality_score": 7,
"duration_s": 0,
"price_usd": 0,
"resolution": "HD",
"published_at": "2026-03-14T16:32:56.477465Z"
},
{
"yt_id": "7DFB7yRhdYo",
"youtube_id": "7DFB7yRhdYo",
"title": "Mass production is now Ukraine's biggest military advantage",
"description": "Mass Production Is Now Ukraine's Biggest Military Advantage",
"tags": [
"war-ukraine",
"mass-production",
"analysis"
],
"category": "war-ukraine",
"source": "youtube",
"status": "published",
"youtube_channel": "Wes O'Donnell",
"lat": 50.0895,
"lon": 30.95,
"shot_lat": 50.0895,
"shot_lon": 30.95,
"thumb_url": "https://i.ytimg.com/vi/7DFB7yRhdYo/maxresdefault.jpg",
"ai_quality_score": 7,
"duration_s": 0,
"price_usd": 0,
"resolution": "HD",
"published_at": "2025-10-26T17:40:52.477465Z"
},
{
"yt_id": "sjT8GhPGBMU",
"youtube_id": "sjT8GhPGBMU",
"title": "Russia ramps up drone production, reshaping the war in Ukraine",
"description": "Russia Ramps Up Drone Production, Reshaping the War",
"tags": [
"war-russia",
"production",
"reshape"
],
"category": "war-russia",
"source": "youtube",
"status": "published",
"youtube_channel": "Al Jazeera English",
"lat": 55.6718,
"lon": 38.7798,
"shot_lat": 55.6718,
"shot_lon": 38.7798,
"thumb_url": "https://i.ytimg.com/vi/sjT8GhPGBMU/maxresdefault.jpg",
"ai_quality_score": 7,
"duration_s": 0,
"price_usd": 0,
"resolution": "HD",
"published_at": "2025-11-24T10:38:50.477465Z"
},
{
"yt_id": "RU8bLCEgEGQ",
"youtube_id": "RU8bLCEgEGQ",
"title": "First look inside Putin's lethal drone factory \u2013 where teens build the killing machines",
"description": "First Look Inside Putin's Lethal Drone Factory \u2014 Teens Building",
"tags": [
"war-russia",
"factory",
"yelabuga",
"teens"
],
"category": "war-russia",
"source": "youtube",
"status": "published",
"youtube_channel": "New York Post",
"lat": 54.3779,
"lon": 37.0602,
"shot_lat": 54.3779,
"shot_lon": 37.0602,
"thumb_url": "https://i.ytimg.com/vi/RU8bLCEgEGQ/maxresdefault.jpg",
"ai_quality_score": 7,
"duration_s": 0,
"price_usd": 0,
"resolution": "HD",
"published_at": "2026-02-24T15:50:43.477465Z"
},
{
"yt_id": "UsTmYhRFeyw",
"youtube_id": "UsTmYhRFeyw",
"title": "\u2018In Just One Hit\u2026\u2019: Russia RAVAGES Ukraine\u2019s Giant Drone Production Plant In Kherson | Attack On Cam",
"description": "Russia Ravages Ukraine's Giant Drone Production Plant in Kherson",
"tags": [
"war-russia",
"kherson",
"factory",
"strike"
],
"category": "war-russia",
"source": "youtube",
"status": "published",
"youtube_channel": "Times Of India",
"lat": 56.954,
"lon": 37.875,
"shot_lat": 56.954,
"shot_lon": 37.875,
"thumb_url": "https://i.ytimg.com/vi/UsTmYhRFeyw/maxresdefault.jpg",
"ai_quality_score": 7,
"duration_s": 0,
"price_usd": 0,
"resolution": "HD",
"published_at": "2025-05-13T19:14:16.477465Z"
},
{
"yt_id": "3RLPtaFmWXo",
"youtube_id": "3RLPtaFmWXo",
"title": "Germany Is Now Mass-Producing Ukraine's Deadliest Drones",
"description": "Germany Now Mass-Producing Ukraine's Deadliest Drones",
"tags": [
"war-ukraine",
"germany",
"linza",
"production"
],
"category": "war-ukraine",
"source": "youtube",
"status": "published",
"youtube_channel": "Wes O'Donnell",
"lat": 51.3798,
"lon": 30.5699,
"shot_lat": 51.3798,
"shot_lon": 30.5699,
"thumb_url": "https://i.ytimg.com/vi/3RLPtaFmWXo/maxresdefault.jpg",
"ai_quality_score": 7,
"duration_s": 0,
"price_usd": 0,
"resolution": "HD",
"published_at": "2025-12-20T02:35:51.477465Z"
},
{
"yt_id": "Dm8mFFpp9h0",
"youtube_id": "Dm8mFFpp9h0",
"title": "Watch! Russia Destroys Major Drone Manufacturing Plant in\u00a0Ukraine!",
"description": "Russia Destroys Major Drone Manufacturing Plant in Ukraine",
"tags": [
"war-russia",
"factory",
"strike"
],
"category": "war-russia",
"source": "youtube",
"status": "published",
"youtube_channel": "Military TV",
"lat": 56.3564,
"lon": 39.0333,
"shot_lat": 56.3564,
"shot_lon": 39.0333,
"thumb_url": "https://i.ytimg.com/vi/Dm8mFFpp9h0/maxresdefault.jpg",
"ai_quality_score": 7,
"duration_s": 0,
"price_usd": 0,
"resolution": "HD",
"published_at": "2025-05-26T08:34:08.477465Z"
},
{
"yt_id": "PKAUQXVHp-Y",
"youtube_id": "PKAUQXVHp-Y",
"title": "First Time Ever: Russia Unveils World\u2019s Largest Drone Factory for War in Ukraine | Times Now World",
"description": "Russia Unveils World's Largest Drone Factory \u2014 Yelabuga",
"tags": [
"war-russia",
"yelabuga",
"factory",
"shahed"
],
"category": "war-russia",
"source": "youtube",
"status": "published",
"youtube_channel": "Times Now World",
"lat": 56.9387,
"lon": 38.9949,
"shot_lat": 56.9387,
"shot_lon": 38.9949,
"thumb_url": "https://i.ytimg.com/vi/PKAUQXVHp-Y/maxresdefault.jpg",
"ai_quality_score": 7,
"duration_s": 0,
"price_usd": 0,
"resolution": "HD",
"published_at": "2025-10-21T18:41:47.477465Z"
}
]